$GNZDA,094550,09,06,2012,00,00*55
$GNDTM,W84,,,,,,,*0F
$GNRMC,094550,A,5957.01433,N,03023.22067,E,0,,090612,,,A*57
$GNGLL,5957.01433,N,03023.22067,E,094550,A,A*5C
$GNVTG,,,,,0,N,0,K,A*24
$GNZDA,094551,09,06,2012,00,00*54
$GNRMC,094551,A,5957.01433,N,03023.22067,E,0,,090612,,,A*56
$GNGLL,5957.01433,N,03023.22067,E,094551,A,A*5D
$GNVTG,,,,,0,N,0,K,A*24
$GNZDA,094552,09,06,2012,00,00*57
$GNRMC,094552,A,5957.01433,N,03023.22067,E,0,,090612,,,A*55
$GNGLL,5957.01433,N,03023.22067,E,094552,A,A*5E
$GNVTG,,,,,0,N,0,K,A*24
$GNZDA,094553,09,06,2012,00,00*56
$GNRMC,094553,A,5957.01417,N,03023.22067,E,0,,090612,,,A*52
$GNGLL,5957.01417,N,03023.22067,E,094553,A,A*59
$GNVTG,,,,,0,N,0,K,A*24
$GNZDA,094554,09,06,2012,00,00*51
$GNRMC,094554,A,5957.01433,N,03023.22067,E,0,,090612,,,A*53
$GNGLL,5957.01433,N,03023.22067,E,094554,A,A*58
$GNVTG,,,,,0,N,0,K,A*24
$GNZDA,094555,09,06,2012,00,00*50
$GNRMC,094555,A,5957.01433,N,03023.22033,E,0.57785,275.57236,090612,,,A*6E
$GNGLL,5957.01433,N,03023.22033,E,094555,A,A*58
$GNVTG,275.57236,T,,,0.57785,N,1.07018,K,A*5C
$GNZDA,094556,09,06,2012,00,00*53
$GNRMC,094556,A,5957.01433,N,03023.21933,E,1.71076,272.59618,090612,,,A*68
$GNGLL,5957.01433,N,03023.21933,E,094556,A,A*51
$GNVTG,272.59618,T,,,1.71076,N,3.16832,K,A*51
$GNZDA,094557,09,06,2012,00,00*52
$GNRMC,094557,A,5957.01433,N,03023.218,E,2.33709,271.62021,090612,,,A*65
$GNGLL,5957.01433,N,03023.218,E,094557,A,A*51
$GNVTG,271.62021,T,,,2.33709,N,4.32829,K,A*57
$GNZDA,094558,09,06,2012,00,00*5D
$GNRMC,094558,A,5957.01417,N,03023.21667,E,2.4758,272.63774,090612,,,A*56
$GNGLL,5957.01417,N,03023.21667,E,094558,A,A*57
$GNVTG,272.63774,T,,,2.4758,N,4.58517,K,A*6E
$GNZDA,094559,09,06,2012,00,00*5C
$GNRMC,094559,A,5957.01433,N,03023.21517,E,2.57663,273.77194,090612,,,A*66
$GNGLL,5957.01433,N,03023.21517,E,094559,A,A*54
$GNVTG,273.77194,T,,,2.57663,N,4.77191,K,A*5A
$GNZDA,094600,09,06,2012,00,00*53
$GNRMC,094600,A,5957.0145,N,03023.21383,E,2.47366,272.93261,090612,,,A*54
$GNGLL,5957.0145,N,03023.21383,E,094600,A,A*65
$GNVTG,272.93261,T,,,2.47366,N,4.58122,K,A*5C
$GNZDA,094601,09,06,2012,00,00*52
$GNRMC,094601,A,5957.0145,N,03023.21233,E,2.56221,271.89848,090612,,,A*54
$GNGLL,5957.0145,N,03023.21233,E,094601,A,A*6E
$GNVTG,271.89848,T,,,2.56221,N,4.74521,K,A*5E
$GNZDA,094602,09,06,2012,00,00*51
$GNRMC,094602,A,5957.0145,N,03023.211,E,2.65311,270.72586,090612,,,A*5C
$GNGLL,5957.0145,N,03023.211,E,094602,A,A*6E
$GNVTG,270.72586,T,,,2.65311,N,4.91356,K,A*5B
$GNZDA,094603,09,06,2012,00,00*50
$GNRMC,094603,A,5957.0145,N,03023.2095,E,2.62968,270.05287,090612,,,A*64
$GNGLL,5957.0145,N,03023.2095,E,094603,A,A*53
$GNVTG,270.05287,T,,,2.62968,N,4.87017,K,A*5F
$GNZDA,094604,09,06,2012,00,00*57
$GNRMC,094604,A,5957.01433,N,03023.20817,E,2.66363,272.21755,090612,,,A*6F
$GNGLL,5957.01433,N,03023.20817,E,094604,A,A*53
$GNVTG,272.21755,T,,,2.66363,N,4.93305,K,A*51
$GNZDA,094605,09,06,2012,00,00*56
$GNRMC,094605,A,5957.0145,N,03023.20667,E,2.66666,271.43609,090612,,,A*5D
$GNGLL,5957.0145,N,03023.20667,E,094605,A,A*6E
$GNVTG,271.43609,T,,,2.66666,N,4.93865,K,A*53
$GNZDA,094606,09,06,2012,00,00*55
$GNRMC,094606,A,5957.0145,N,03023.20517,E,2.70187,272.76766,090612,,,A*58
$GNGLL,5957.0145,N,03023.20517,E,094606,A,A*69
$GNVTG,272.76766,T,,,2.70187,N,5.00385,K,A*5F
$GNZDA,094607,09,06,2012,00,00*54
$GNRMC,094607,A,5957.0145,N,03023.2035,E,2.75642,272.23445,090612,,,A*65
$GNGLL,5957.0145,N,03023.2035,E,094607,A,A*5D
$GNVTG,272.23445,T,,,2.75642,N,5.10489,K,A*5C
$GNZDA,094608,09,06,2012,00,00*5B
$GNRMC,094608,A,5957.01467,N,03023.202,E,2.87363,271.02131,090612,,,A*67
$GNGLL,5957.01467,N,03023.202,E,094608,A,A*52
$GNVTG,271.02131,T,,,2.87363,N,5.32197,K,A*5B
$GNZDA,094609,09,06,2012,00,00*5A
$GNRMC,094609,A,5957.01467,N,03023.2005,E,2.87144,272.55851,090612,,,A*58
$GNGLL,5957.01467,N,03023.2005,E,094609,A,A*64
$GNVTG,272.55851,T,,,2.87144,N,5.3179,K,A*60
$GNZDA,094610,09,06,2012,00,00*52
$GNRMC,094610,A,5957.01467,N,03023.19883,E,2.93114,272.27653,090612,,,A*65
$GNGLL,5957.01467,N,03023.19883,E,094610,A,A*50
$GNVTG,272.27653,T,,,2.93114,N,5.42847,K,A*58
$GNZDA,094611,09,06,2012,00,00*53
$GNRMC,094611,A,5957.01483,N,03023.19717,E,2.87052,271.56677,090612,,,A*69
$GNGLL,5957.01483,N,03023.19717,E,094611,A,A*59
$GNVTG,271.56677,T,,,2.87052,N,5.3162,K,A*66
$GNZDA,094612,09,06,2012,00,00*50
$GNRMC,094612,A,5957.01483,N,03023.19567,E,2.81578,270.62869,090612,,,A*63
$GNGLL,5957.01483,N,03023.19567,E,094612,A,A*5F
$GNVTG,270.62869,T,,,2.81578,N,5.21483,K,A*50
$GNZDA,094613,09,06,2012,00,00*51
$GNRMC,094613,A,5957.01483,N,03023.19417,E,2.87286,271.47262,090612,,,A*63
$GNGLL,5957.01483,N,03023.19417,E,094613,A,A*58
$GNVTG,271.47262,T,,,2.87286,N,5.32053,K,A*5C
$GNZDA,094614,09,06,2012,00,00*56
$GNRMC,094614,A,5957.01483,N,03023.1925,E,2.85034,271.06158,090612,,,A*57
$GNGLL,5957.01483,N,03023.1925,E,094614,A,A*6A
$GNVTG,271.06158,T,,,2.85034,N,5.27883,K,A*5B
$GNZDA,094615,09,06,2012,00,00*57
$GNRMC,094615,A,5957.015,N,03023.191,E,2.91511,272.63973,090612,,,A*6C
$GNGLL,5957.015,N,03023.191,E,094615,A,A*57
$GNVTG,272.63973,T,,,2.91511,N,5.39878,K,A*56
$GNZDA,094616,09,06,2012,00,00*54
$GNRMC,094616,A,5957.015,N,03023.18933,E,2.89277,272.56428,090612,,,A*6D
$GNGLL,5957.015,N,03023.18933,E,094616,A,A*5D
$GNVTG,272.56428,T,,,2.89277,N,5.3574,K,A*65
$GNZDA,094617,09,06,2012,00,00*55
$GNRMC,094617,A,5957.015,N,03023.18767,E,2.92477,270.90937,090612,,,A*64
$GNGLL,5957.015,N,03023.18767,E,094617,A,A*53
$GNVTG,270.90937,T,,,2.92477,N,5.41667,K,A*55
$GNZDA,094618,09,06,2012,00,00*5A
$GNRMC,094618,A,5957.015,N,03023.18617,E,2.85709,273.15042,090612,,,A*64
$GNGLL,5957.015,N,03023.18617,E,094618,A,A*5A
$GNVTG,273.15042,T,,,2.85709,N,5.29133,K,A*54
$GNZDA,094619,09,06,2012,00,00*5B
$GNRMC,094619,A,5957.015,N,03023.18467,E,2.75452,274.48641,090612,,,A*68
$GNGLL,5957.015,N,03023.18467,E,094619,A,A*5E
$GNVTG,274.48641,T,,,2.75452,N,5.10138,K,A*5D
$GNZDA,094620,09,06,2012,00,00*51
$GNDTM,W84,,,,,,,*0F
$GNRMC,094620,A,5957.015,N,03023.18317,E,2.74482,270.1935,090612,,,A*5B
$GNGLL,5957.015,N,03023.18317,E,094620,A,A*54
$GNVTG,270.1935,T,,,2.74482,N,5.0834,K,A*50
$GNZDA,094621,09,06,2012,00,00*50
$GNRMC,094621,A,5957.01483,N,03023.18167,E,2.77333,268.52249,090612,,,A*64
$GNGLL,5957.01483,N,03023.18167,E,094621,A,A*5A
$GNVTG,268.52249,T,,,2.77333,N,5.1362,K,A*68
$GNZDA,094622,09,06,2012,00,00*53
$GNRMC,094622,A,5957.01483,N,03023.18017,E,2.79808,269.74677,090612,,,A*60
$GNGLL,5957.01483,N,03023.18017,E,094622,A,A*5F
$GNVTG,269.74677,T,,,2.79808,N,5.18204,K,A*50
$GNZDA,094623,09,06,2012,00,00*52
$GNRMC,094623,A,5957.01483,N,03023.17867,E,2.75242,266.21916,090612,,,A*6E
$GNGLL,5957.01483,N,03023.17867,E,094623,A,A*5E
$GNVTG,266.21916,T,,,2.75242,N,5.09748,K,A*52
$GNZDA,094624,09,06,2012,00,00*55
$GNRMC,094624,A,5957.01483,N,03023.177,E,2.796,266.07342,090612,,,A*66
$GNGLL,5957.01483,N,03023.177,E,094624,A,A*57
$GNVTG,266.07342,T,,,2.796,N,5.17819,K,A*57
$GNZDA,094625,09,06,2012,00,00*54
$GNRMC,094625,A,5957.015,N,03023.1755,E,2.71859,270.81124,090612,,,A*5B
$GNGLL,5957.015,N,03023.1755,E,094625,A,A*6B
$GNVTG,270.81124,T,,,2.71859,N,5.03482,K,A*5D
$GNZDA,094626,09,06,2012,00,00*57
$GNRMC,094626,A,5957.01517,N,03023.174,E,2.79013,274.43606,090612,,,A*69
$GNGLL,5957.01517,N,03023.174,E,094626,A,A*5A
$GNVTG,274.43606,T,,,2.79013,N,5.16731,K,A*51
$GNZDA,094627,09,06,2012,00,00*56
$GNRMC,094627,A,5957.015,N,03023.1725,E,2.71081,270.2485,090612,,,A*66
$GNGLL,5957.015,N,03023.1725,E,094627,A,A*6E
$GNVTG,270.2485,T,,,2.71081,N,5.02043,K,A*6D
$GNZDA,094628,09,06,2012,00,00*59
$GNRMC,094628,A,5957.01517,N,03023.171,E,2.71306,271.76243,090612,,,A*6B
$GNGLL,5957.01517,N,03023.171,E,094628,A,A*51
$GNVTG,271.76243,T,,,2.71306,N,5.02459,K,A*50
$GNZDA,094629,09,06,2012,-04,00*71
$GNRMC,094629,A,5957.01517,N,03023.1695,E,2.62914,275.12019,090612,,,A*56
$GNGLL,5957.01517,N,03023.1695,E,094629,A,A*6C
$GNVTG,275.12019,T,,,2.62914,N,4.86917,K,A*5A
$GNZDA,094630,09,06,2012,-04,00*79
$GNRMC,094630,A,5957.01517,N,03023.168,E,2.66926,274.13434,090612,,,A*64
$GNGLL,5957.01517,N,03023.168,E,094630,A,A*50
$GNVTG,274.13434,T,,,2.66926,N,4.94347,K,A*58
$GNZDA,094631,09,06,2012,-04,00*78
$GNRMC,094631,A,5957.01517,N,03023.1665,E,2.6818,273.7072,090612,,,A*50
$GNGLL,5957.01517,N,03023.1665,E,094631,A,A*6A
$GNVTG,273.7072,T,,,2.6818,N,4.96669,K,A*5D
$GNZDA,094632,09,06,2012,-04,00*7B
$GNRMC,094632,A,5957.01517,N,03023.16517,E,2.62283,269.64917,090612,,,A*6D
$GNGLL,5957.01517,N,03023.16517,E,094632,A,A*59
$GNVTG,269.64917,T,,,2.62283,N,4.85749,K,A*52
$GNZDA,094633,09,06,2012,-04,00*7A
$GNRMC,094633,A,5957.015,N,03023.16367,E,2.72594,255.83721,090612,,,A*66
$GNGLL,5957.015,N,03023.16367,E,094633,A,A*5F
$GNVTG,255.83721,T,,,2.72594,N,5.04845,K,A*54
$GNZDA,094634,09,06,2012,-04,00*7D
$GNRMC,094634,A,5957.01467,N,03023.16233,E,2.83445,244.90065,090612,,,A*67
$GNGLL,5957.01467,N,03023.16233,E,094634,A,A*58
$GNVTG,244.90065,T,,,2.83445,N,5.2494,K,A*64
$GNZDA,094635,09,06,2012,-04,00*7C
$GNRMC,094635,A,5957.01417,N,03023.16117,E,2.7343,229.32732,090612,,,A*5F
$GNGLL,5957.01417,N,03023.16117,E,094635,A,A*5B
$GNVTG,229.32732,T,,,2.7343,N,5.06393,K,A*6B
$GNZDA,094636,09,06,2012,-04,00*7F
$GNRMC,094636,A,5957.01367,N,03023.16017,E,2.78518,219.99218,090612,,,A*62
$GNGLL,5957.01367,N,03023.16017,E,094636,A,A*59
$GNVTG,219.99218,T,,,2.78518,N,5.15814,K,A*52
$GNZDA,094637,09,06,2012,-04,00*7E
$GNRMC,094637,A,5957.013,N,03023.15933,E,2.7737,211.08748,090612,,,A*59
$GNGLL,5957.013,N,03023.15933,E,094637,A,A*55
$GNVTG,211.08748,T,,,2.7737,N,5.13689,K,A*69
$GNZDA,094638,09,06,2012,-04,00*71
$GNRMC,094638,A,5957.01217,N,03023.159,E,2.81815,192.9267,090612,,,A*51
$GNGLL,5957.01217,N,03023.159,E,094638,A,A*5D
$GNVTG,192.9267,T,,,2.81815,N,5.21922,K,A*66
$GNZDA,094639,09,06,2012,-04,00*70
$GNRMC,094639,A,5957.01133,N,03023.15883,E,2.84457,186.57178,090612,,,A*63
$GNGLL,5957.01133,N,03023.15883,E,094639,A,A*53
$GNVTG,186.57178,T,,,2.84457,N,5.26814,K,A*59
$GNZDA,094640,09,06,2012,-04,00*7E
$GNRMC,094640,A,5957.01067,N,03023.15867,E,2.90563,184.75649,090612,,,A*63
$GNGLL,5957.01067,N,03023.15867,E,094640,A,A*57
$GNVTG,184.75649,T,,,2.90563,N,5.38123,K,A*5F
$GNZDA,094641,09,06,2012,-04,00*7F
$GNRMC,094641,A,5957.01,N,03023.1585,E,2.75452,183.36092,090612,,,A*6F
$GNGLL,5957.01,N,03023.1585,E,094641,A,A*53
$GNVTG,183.36092,T,,,2.75452,N,5.10137,K,A*58
$GNZDA,094642,09,06,2012,-04,00*7C
$GNRMC,094642,A,5957.009,N,03023.15833,E,2.98692,183.60582,090612,,,A*6B
$GNGLL,5957.009,N,03023.15833,E,094642,A,A*5D
$GNVTG,183.60582,T,,,2.98692,N,5.53178,K,A*5E
$GNZDA,094643,09,06,2012,-04,00*7D
$GNRMC,094643,A,5957.00817,N,03023.15833,E,2.87804,182.47567,090612,,,A*6D
$GNGLL,5957.00817,N,03023.15833,E,094643,A,A*5B
$GNVTG,182.47567,T,,,2.87804,N,5.33014,K,A*53
$GNZDA,094644,09,06,2012,-04,00*7A
$GNRMC,094644,A,5957.00733,N,03023.15833,E,3.2342,181.03442,090612,,,A*53
$GNGLL,5957.00733,N,03023.15833,E,094644,A,A*55
$GNVTG,181.03442,T,,,3.2342,N,5.98975,K,A*6C
$GNZDA,094645,09,06,2012,-04,00*7B
$GNRMC,094645,A,5957.0065,N,03023.15817,E,2.95879,183.57732,090612,,,A*5B
$GNGLL,5957.0065,N,03023.15817,E,094645,A,A*66
$GNVTG,183.57732,T,,,2.95879,N,5.47968,K,A*59
$GNZDA,094646,09,06,2012,-04,00*78
$GNRMC,094646,A,5957.00567,N,03023.158,E,2.98348,185.05395,090612,,,A*65
$GNGLL,5957.00567,N,03023.158,E,094646,A,A*54
$GNVTG,185.05395,T,,,2.98348,N,5.52541,K,A*56
$GNZDA,094647,09,06,2012,-04,00*79
$GNRMC,094647,A,5957.00467,N,03023.15783,E,3.1143,185.84338,090612,,,A*57
$GNGLL,5957.00467,N,03023.15783,E,094647,A,A*50
$GNVTG,185.84338,T,,,3.1143,N,5.76768,K,A*6F
$GNZDA,094648,09,06,2012,-04,00*76
$GNRMC,094648,A,5957.00383,N,03023.15767,E,2.93618,181.28505,090612,,,A*66
$GNGLL,5957.00383,N,03023.15767,E,094648,A,A*58
$GNVTG,181.28505,T,,,2.93618,N,5.4378,K,A*66
$GNZDA,094649,09,06,2012,-04,00*77
$GNRMC,094649,A,5957.003,N,03023.15733,E,3.09374,189.07409,090612,,,A*68
$GNGLL,5957.003,N,03023.15733,E,094649,A,A*53
$GNVTG,189.07409,T,,,3.09374,N,5.72961,K,A*50
$GNZDA,094650,09,06,2012,-04,00*7F
$GNDTM,W84,,,,,,,*0F
$GNRMC,094650,A,5957.00217,N,03023.15733,E,2.99449,183.02803,090612,,,A*6F
$GNGLL,5957.00217,N,03023.15733,E,094650,A,A*5C
$GNVTG,183.02803,T,,,2.99449,N,5.54579,K,A*59
$GNZDA,094651,09,06,2012,-04,00*7E
$GNRMC,094651,A,5957.00133,N,03023.15733,E,2.98283,180.10188,090612,,,A*60
$GNGLL,5957.00133,N,03023.15733,E,094651,A,A*58
$GNVTG,180.10188,T,,,2.98283,N,5.52419,K,A*53
$GNZDA,094652,09,06,2012,-04,00*7D
$GNRMC,094652,A,5957.0005,N,03023.15733,E,3.03434,180.17232,090612,,,A*5B
$GNGLL,5957.0005,N,03023.15733,E,094652,A,A*6F
$GNVTG,180.17232,T,,,3.03434,N,5.6196,K,A*6C
$GNZDA,094653,09,06,2012,-04,00*7C
$GNRMC,094653,A,5956.99967,N,03023.1575,E,3.05127,179.9388,090612,,,A*6B
$GNGLL,5956.99967,N,03023.1575,E,094653,A,A*67
$GNVTG,179.9388,T,,,3.05127,N,5.65096,K,A*60
$GNZDA,094654,09,06,2012,-04,00*7B
$GNRMC,094654,A,5956.99883,N,03023.1575,E,2.88062,178.53899,090612,,,A*56
$GNGLL,5956.99883,N,03023.1575,E,094654,A,A*6B
$GNVTG,178.53899,T,,,2.88062,N,5.33491,K,A*51
$GNZDA,094655,09,06,2012,-04,00*7A
$GNRMC,094655,A,5956.998,N,03023.1575,E,3.07168,180.87773,090612,,,A*54
$GNGLL,5956.998,N,03023.1575,E,094655,A,A*61
$GNVTG,180.87773,T,,,3.07168,N,5.68874,K,A*50
$GNZDA,094656,09,06,2012,-04,00*79
$GNRMC,094656,A,5956.997,N,03023.1575,E,3.1359,180.9136,090612,,,A*5F
$GNGLL,5956.997,N,03023.1575,E,094656,A,A*6D
$GNVTG,180.9136,T,,,3.1359,N,5.80769,K,A*52
$GNZDA,094657,09,06,2012,-04,00*78
$GNRMC,094657,A,5956.996,N,03023.15733,E,3.14707,182.41126,090612,,,A*6E
$GNGLL,5956.996,N,03023.15733,E,094657,A,A*58
$GNVTG,182.41126,T,,,3.14707,N,5.82838,K,A*5F
$GNZDA,094658,09,06,2012,-04,00*77
$GNRMC,094658,A,5956.99517,N,03023.15717,E,3.0996,182.97965,090612,,,A*55
$GNGLL,5956.99517,N,03023.15717,E,094658,A,A*54
$GNVTG,182.97965,T,,,3.0996,N,5.74046,K,A*60
$GNZDA,094659,09,06,2012,-04,00*76
$GNRMC,094659,A,5956.994,N,03023.15917,E,5.44556,137.4098,090612,,,A*54
$GNGLL,5956.994,N,03023.15917,E,094659,A,A*5C
$GNVTG,137.4098,T,,,5.44556,N,10.08517,K,A*57
$GNZDA,094700,09,06,2012,-04,00*7B
$GNRMC,094700,A,5956.99317,N,03023.159,E,3.19133,180.89708,090612,,,A*60
$GNGLL,5956.99317,N,03023.159,E,094700,A,A*56
$GNVTG,180.89708,T,,,3.19133,N,5.91033,K,A*5E
$GNZDA,094701,09,06,2012,-04,00*7A
$GNRMC,094701,A,5956.99233,N,03023.159,E,3.18443,180.35832,090612,,,A*64
$GNGLL,5956.99233,N,03023.159,E,094701,A,A*50
$GNVTG,180.35832,T,,,3.18443,N,5.89757,K,A*50
$GNZDA,094702,09,06,2012,-04,00*79
$GNRMC,094702,A,5956.9915,N,03023.159,E,3.17706,180.2182,090612,,,A*6A
$GNGLL,5956.9915,N,03023.159,E,094702,A,A*65
$GNVTG,180.2182,T,,,3.17706,N,5.88391,K,A*64
$GNZDA,094703,09,06,2012,-04,00*78
$GNRMC,094703,A,5956.9905,N,03023.15883,E,3.16111,180.47739,090612,,,A*56
$GNGLL,5956.9905,N,03023.15883,E,094703,A,A*6F
$GNVTG,180.47739,T,,,3.16111,N,5.85438,K,A*5B
$GNZDA,094704,09,06,2012,-04,00*7F
$GNRMC,094704,A,5956.98967,N,03023.15883,E,3.1628,179.17003,090612,,,A*5B
$GNGLL,5956.98967,N,03023.15883,E,094704,A,A*54
$GNVTG,179.17003,T,,,3.1628,N,5.85751,K,A*61
$GNZDA,094705,09,06,2012,-04,00*7E
$GNRMC,094705,A,5956.98883,N,03023.15883,E,3.20406,180.39887,090612,,,A*62
$GNGLL,5956.98883,N,03023.15883,E,094705,A,A*5E
$GNVTG,180.39887,T,,,3.20406,N,5.93392,K,A*5E
$GNZDA,094706,09,06,2012,-04,00*7D
$GNRMC,094706,A,5956.988,N,03023.15883,E,3.15752,181.242,090612,,,A*66
$GNGLL,5956.988,N,03023.15883,E,094706,A,A*56
$GNVTG,181.242,T,,,3.15752,N,5.84772,K,A*5E
$GNZDA,094707,09,06,2012,-04,00*7C
$GNRMC,094707,A,5956.98717,N,03023.15867,E,3.04006,181.07662,090612,,,A*63
$GNGLL,5956.98717,N,03023.15867,E,094707,A,A*54
$GNVTG,181.07662,T,,,3.04006,N,5.63019,K,A*5A
$GNZDA,094708,09,06,2012,-04,00*73
$GNRMC,094708,A,5956.98633,N,03023.15867,E,3.14752,179.50143,090612,,,A*6D
$GNGLL,5956.98633,N,03023.15867,E,094708,A,A*5C
$GNVTG,179.50143,T,,,3.14752,N,5.82921,K,A*51
$GNZDA,094709,09,06,2012,-04,00*72
$GNRMC,094709,A,5956.9855,N,03023.1585,E,3.2948,181.11117,090612,,,A*5F
$GNGLL,5956.9855,N,03023.1585,E,094709,A,A*5F
$GNVTG,181.11117,T,,,3.2948,N,6.10197,K,A*6D
$GNZDA,094710,09,06,2012,-04,00*7A
$GNRMC,094710,A,5956.9845,N,03023.15867,E,3.30211,182.85418,090612,,,A*50
$GNGLL,5956.9845,N,03023.15867,E,094710,A,A*62
$GNVTG,182.85418,T,,,3.30211,N,6.11551,K,A*50
$GNZDA,094711,09,06,2012,-04,00*7B
$GNRMC,094711,A,5956.9835,N,03023.1585,E,3.41294,181.7556,090612,,,A*5B
$GNGLL,5956.9835,N,03023.1585,E,094711,A,A*50
$GNVTG,181.7556,T,,,3.41294,N,6.32077,K,A*69
$GNZDA,094712,09,06,2012,-04,00*78
$GNRMC,094712,A,5956.98267,N,03023.1585,E,3.3433,182.7087,090612,,,A*5A
$GNGLL,5956.98267,N,03023.1585,E,094712,A,A*66
$GNVTG,182.7087,T,,,3.3433,N,6.1918,K,A*6E
$GNZDA,094713,09,06,2012,-04,00*79
$GNRMC,094713,A,5956.98167,N,03023.15833,E,3.34666,182.28111,090612,,,A*68
$GNGLL,5956.98167,N,03023.15833,E,094713,A,A*51
$GNVTG,182.28111,T,,,3.34666,N,6.19801,K,A*5B
$GNZDA,094714,09,06,2012,-04,00*7E
$GNRMC,094714,A,5956.98067,N,03023.15833,E,3.4185,182.15941,090612,,,A*54
$GNGLL,5956.98067,N,03023.15833,E,094714,A,A*57
$GNVTG,182.15941,T,,,3.4185,N,6.33107,K,A*66
$GNZDA,094715,09,06,2012,-04,00*7F
$GNRMC,094715,A,5956.97983,N,03023.15833,E,3.36945,182.7606,090612,,,A*53
$GNGLL,5956.97983,N,03023.15833,E,094715,A,A*5A
$GNVTG,182.7606,T,,,3.36945,N,6.24022,K,A*6C
$GNZDA,094716,09,06,2012,-04,00*7C
$GNRMC,094716,A,5956.97883,N,03023.15817,E,3.31627,180.90234,090612,,,A*62
$GNGLL,5956.97883,N,03023.15817,E,094716,A,A*5E
$GNVTG,180.90234,T,,,3.31627,N,6.14172,K,A*5E
$GNZDA,094717,09,06,2012,-04,00*7D
$GNRMC,094717,A,5956.97783,N,03023.15817,E,3.29936,179.64481,090612,,,A*6F
$GNGLL,5956.97783,N,03023.15817,E,094717,A,A*50
$GNVTG,179.64481,T,,,3.29936,N,6.11041,K,A*59
$GNZDA,094718,09,06,2012,-04,00*72
$GNRMC,094718,A,5956.977,N,03023.15817,E,3.3582,181.21188,090612,,,A*5A
$GNGLL,5956.977,N,03023.15817,E,094718,A,A*54
$GNVTG,181.21188,T,,,3.3582,N,6.21938,K,A*6C
$GNZDA,094719,09,06,2012,-04,00*73
$GNRMC,094719,A,5956.976,N,03023.15817,E,3.27734,181.08313,090612,,,A*68
$GNGLL,5956.976,N,03023.15817,E,094719,A,A*54
$GNVTG,181.08313,T,,,3.27734,N,6.06962,K,A*54
$GNZDA,094720,09,06,2012,-04,00*79
$GNDTM,W84,,,,,,,*0F
$GNRMC,094720,A,5956.97517,N,03023.158,E,3.28554,181.81508,090612,,,A*67
$GNGLL,5956.97517,N,03023.158,E,094720,A,A*5D
$GNVTG,181.81508,T,,,3.28554,N,6.08482,K,A*5F
$GNZDA,094721,09,06,2012,-04,00*78
$GNRMC,094721,A,5956.97433,N,03023.15783,E,3.40588,181.50134,090612,,,A*6D
$GNGLL,5956.97433,N,03023.15783,E,094721,A,A*5F
$GNVTG,181.50134,T,,,3.40588,N,6.30769,K,A*5A
$GNZDA,094722,09,06,2012,-04,00*7B
$GNRMC,094722,A,5956.97333,N,03023.15783,E,3.42625,179.92132,090612,,,A*60
$GNGLL,5956.97333,N,03023.15783,E,094722,A,A*5B
$GNVTG,179.92132,T,,,3.42625,N,6.34541,K,A*5F
$GNZDA,094723,09,06,2012,-04,00*7A
$GNRMC,094723,A,5956.97233,N,03023.158,E,3.23761,180.33181,090612,,,A*67
$GNGLL,5956.97233,N,03023.158,E,094723,A,A*5F
$GNVTG,180.33181,T,,,3.23761,N,5.99606,K,A*58
$GNZDA,094724,09,06,2012,-04,00*7D
$GNRMC,094724,A,5956.97133,N,03023.158,E,3.36551,179.05123,090612,,,A*6D
$GNGLL,5956.97133,N,03023.158,E,094724,A,A*5B
$GNVTG,179.05123,T,,,3.36551,N,6.23292,K,A*5D
$GNZDA,094725,09,06,2012,-04,00*7C
$GNRMC,094725,A,5956.97033,N,03023.158,E,3.34368,179.35817,090612,,,A*6E
$GNGLL,5956.97033,N,03023.158,E,094725,A,A*5B
$GNVTG,179.35817,T,,,3.34368,N,6.19249,K,A*51
$GNZDA,094726,09,06,2012,-04,00*7F
$GNRMC,094726,A,5956.9695,N,03023.15783,E,3.31534,180.106,090612,,,A*57
$GNGLL,5956.9695,N,03023.15783,E,094726,A,A*61
$GNVTG,180.106,T,,,3.31534,N,6.14,K,A*60
$GNZDA,094727,09,06,2012,-04,00*7E
$GNRMC,094727,A,5956.9685,N,03023.15783,E,3.30551,180.65015,090612,,,A*55
$GNGLL,5956.9685,N,03023.15783,E,094727,A,A*61
$GNVTG,180.65015,T,,,3.30551,N,6.12181,K,A*5C
$GNZDA,094728,09,06,2012,-04,00*71
$GNRMC,094728,A,5956.96767,N,03023.15783,E,3.32678,181.22209,090612,,,A*66
$GNGLL,5956.96767,N,03023.15783,E,094728,A,A*55
$GNVTG,181.22209,T,,,3.32678,N,6.1612,K,A*64
$GNZDA,094729,09,06,2012,-04,00*70
$GNRMC,094729,A,5956.96667,N,03023.15783,E,3.29525,182.55126,090612,,,A*6A
$GNGLL,5956.96667,N,03023.15783,E,094729,A,A*55
$GNVTG,182.55126,T,,,3.29525,N,6.10279,K,A*51
$GNZDA,094730,09,06,2012,-04,00*78
$GNRMC,094730,A,5956.96567,N,03023.15767,E,3.36194,180.00098,090612,,,A*6D
$GNGLL,5956.96567,N,03023.15767,E,094730,A,A*54
$GNVTG,180.00098,T,,,3.36194,N,6.22631,K,A*5E
$GNZDA,094731,09,06,2012,-04,00*79
$GNRMC,094731,A,5956.96483,N,03023.15767,E,3.30172,180.71765,090612,,,A*6A
$GNGLL,5956.96483,N,03023.15767,E,094731,A,A*5E
$GNVTG,180.71765,T,,,3.30172,N,6.11478,K,A*5C
$GNZDA,094732,09,06,2012,-04,00*7A
$GNRMC,094732,A,5956.96383,N,03023.15783,E,3.52824,179.44067,090612,,,A*6F
$GNGLL,5956.96383,N,03023.15783,E,094732,A,A*50
$GNVTG,179.44067,T,,,3.52824,N,6.53429,K,A*55
$GNZDA,094733,09,06,2012,-04,00*7B
$GNRMC,094733,A,5956.96283,N,03023.1575,E,3.34009,182.50758,090612,,,A*5C
$GNGLL,5956.96283,N,03023.1575,E,094733,A,A*6E
$GNVTG,182.50758,T,,,3.34009,N,6.18585,K,A*50
$GNZDA,094734,09,06,2012,-04,00*7C
$GNRMC,094734,A,5956.96183,N,03023.15733,E,3.4206,181.71249,090612,,,A*56
$GNGLL,5956.96183,N,03023.15733,E,094734,A,A*5F
$GNVTG,181.71249,T,,,3.4206,N,6.33494,K,A*63
$GNZDA,094735,09,06,2012,-04,00*7D
$GNRMC,094735,A,5956.96083,N,03023.15717,E,3.32849,183.54471,090612,,,A*6C
$GNGLL,5956.96083,N,03023.15717,E,094735,A,A*59
$GNVTG,183.54471,T,,,3.32849,N,6.16435,K,A*53
$GNZDA,094736,09,06,2012,-04,00*7E
$GNRMC,094736,A,5956.95983,N,03023.157,E,3.34493,182.83695,090612,,,A*6D
$GNGLL,5956.95983,N,03023.157,E,094736,A,A*56
$GNVTG,182.83695,T,,,3.34493,N,6.19481,K,A*5D
$GNZDA,094737,09,06,2012,-04,00*7F
$GNRMC,094737,A,5956.95883,N,03023.157,E,3.33208,181.78637,090612,,,A*61
$GNGLL,5956.95883,N,03023.157,E,094737,A,A*56
$GNVTG,181.78637,T,,,3.33208,N,6.17101,K,A*52
$GNZDA,094738,09,06,2012,-04,00*70
$GNRMC,094738,A,5956.95783,N,03023.15683,E,3.27092,181.13452,090612,,,A*63
$GNGLL,5956.95783,N,03023.15683,E,094738,A,A*5C
$GNVTG,181.13452,T,,,3.27092,N,6.05775,K,A*5C
$GNZDA,094739,09,06,2012,-04,00*71
$GNRMC,094739,A,5956.95717,N,03023.1565,E,2.75456,182.9174,090612,,,A*62
$GNGLL,5956.95717,N,03023.1565,E,094739,A,A*6E
$GNVTG,182.9174,T,,,2.75456,N,5.10145,K,A*6D
$GNZDA,094740,09,06,2012,-04,00*7F
$GNRMC,094740,A,5956.95617,N,03023.1565,E,3.376,181.25943,090612,,,A*5A
$GNGLL,5956.95617,N,03023.1565,E,094740,A,A*61
$GNVTG,181.25943,T,,,3.376,N,6.25236,K,A*58
$GNZDA,094741,09,06,2012,-04,00*7E
$GNRMC,094741,A,5956.95533,N,03023.15633,E,3.29885,181.81856,090612,,,A*6C
$GNGLL,5956.95533,N,03023.15633,E,094741,A,A*50
$GNVTG,181.81856,T,,,3.29885,N,6.10946,K,A*55
$GNZDA,094742,09,06,2012,-04,00*7D
$GNRMC,094742,A,5956.9545,N,03023.15617,E,3.30732,181.6897,090612,,,A*64
$GNGLL,5956.9545,N,03023.15617,E,094742,A,A*61
$GNVTG,181.6897,T,,,3.30732,N,6.12516,K,A*67
$GNZDA,094743,09,06,2012,-04,00*7C
$GNRMC,094743,A,5956.95367,N,03023.15617,E,3.19779,181.4751,090612,,,A*55
$GNGLL,5956.95367,N,03023.15617,E,094743,A,A*53
$GNVTG,181.4751,T,,,3.19779,N,5.92231,K,A*6D
$GNZDA,094744,09,06,2012,-04,00*7B
$GNRMC,094744,A,5956.95267,N,03023.156,E,3.21739,181.70466,090612,,,A*6E
$GNGLL,5956.95267,N,03023.156,E,094744,A,A*53
$GNVTG,181.70466,T,,,3.21739,N,5.95861,K,A*5E
$GNZDA,094745,09,06,2012,-04,00*7A
$GNRMC,094745,A,5956.95183,N,03023.156,E,3.23954,181.19658,090612,,,A*61
$GNGLL,5956.95183,N,03023.156,E,094745,A,A*5B
$GNVTG,181.19658,T,,,3.23954,N,5.99962,K,A*57
$GNZDA,094746,09,06,2012,-04,00*79
$GNRMC,094746,A,5956.95083,N,03023.15617,E,3.30323,180.98418,090612,,,A*63
$GNGLL,5956.95083,N,03023.15617,E,094746,A,A*5F
$GNVTG,180.98418,T,,,3.30323,N,6.11758,K,A*55
$GNZDA,094747,09,06,2012,-04,00*78
$GNRMC,094747,A,5956.95,N,03023.15617,E,3.24026,178.3554,090612,,,A*66
$GNGLL,5956.95,N,03023.15617,E,094747,A,A*65
$GNVTG,178.3554,T,,,3.24026,N,6.00096,K,A*6F
$GNZDA,094748,09,06,2012,-04,00*77
$GNRMC,094748,A,5956.94917,N,03023.15617,E,3.1955,180.47562,090612,,,A*5F
$GNGLL,5956.94917,N,03023.15617,E,094748,A,A*54
$GNVTG,180.47562,T,,,3.1955,N,5.91806,K,A*6D
$GNZDA,094749,09,06,2012,-04,00*76
$GNRMC,094749,A,5956.94817,N,03023.15617,E,3.24526,180.02713,090612,,,A*65
$GNGLL,5956.94817,N,03023.15617,E,094749,A,A*54
$GNVTG,180.02713,T,,,3.24526,N,6.01022,K,A*53
$GNZDA,094750,09,06,2012,-04,00*7E
$GNDTM,W84,,,,,,,*0F
$GNRMC,094750,A,5956.9475,N,03023.156,E,3.1803,184.81946,090612,,,A*6B
$GNGLL,5956.9475,N,03023.156,E,094750,A,A*66
$GNVTG,184.81946,T,,,3.1803,N,5.88992,K,A*6F
$GNZDA,094751,09,06,2012,-04,00*7F
$GNRMC,094751,A,5956.9465,N,03023.15567,E,3.16269,189.67118,090612,,,A*5F
$GNGLL,5956.9465,N,03023.15567,E,094751,A,A*64
$GNVTG,189.67118,T,,,3.16269,N,5.85731,K,A*53
$GNZDA,094752,09,06,2012,-04,00*7C
$GNRMC,094752,A,5956.94567,N,03023.155,E,3.09695,197.85438,090612,,,A*67
$GNGLL,5956.94567,N,03023.155,E,094752,A,A*51
$GNVTG,197.85438,T,,,3.09695,N,5.73556,K,A*54
$GNZDA,094753,09,06,2012,-04,00*7D
$GNRMC,094753,A,5956.945,N,03023.15417,E,3.02219,209.94445,090612,,,A*65
$GNGLL,5956.945,N,03023.15417,E,094753,A,A*56
$GNVTG,209.94445,T,,,3.02219,N,5.59709,K,A*51
$GNZDA,094754,09,06,2012,-04,00*7A
$GNRMC,094754,A,5956.94467,N,03023.15317,E,2.83813,226.88869,090612,,,A*6F
$GNGLL,5956.94467,N,03023.15317,E,094754,A,A*56
$GNVTG,226.88869,T,,,2.83813,N,5.25622,K,A*58
$GNZDA,094755,09,06,2012,-04,00*7B
$GNRMC,094755,A,5956.94417,N,03023.15183,E,2.8943,227.44435,090612,,,A*55
$GNGLL,5956.94417,N,03023.15183,E,094755,A,A*5F
$GNVTG,227.44435,T,,,2.8943,N,5.36025,K,A*68
$GNZDA,094756,09,06,2012,-04,00*78
$GNRMC,094756,A,5956.94333,N,03023.1505,E,3.40646,223.46882,090612,,,A*59
$GNGLL,5956.94333,N,03023.1505,E,094756,A,A*62
$GNVTG,223.46882,T,,,3.40646,N,6.30876,K,A*52
$GNZDA,094757,09,06,2012,-04,00*79
$GNRMC,094757,A,5956.94267,N,03023.14917,E,3.37758,217.63742,090612,,,A*6E
$GNGLL,5956.94267,N,03023.14917,E,094757,A,A*58
$GNVTG,217.63742,T,,,3.37758,N,6.25529,K,A*5C
$GNZDA,094758,09,06,2012,-04,00*76
$GNRMC,094758,A,5956.942,N,03023.14817,E,3.30473,215.33565,090612,,,A*6C
$GNGLL,5956.942,N,03023.14817,E,094758,A,A*57
$GNVTG,215.33565,T,,,3.30473,N,6.12035,K,A*5D
$GNZDA,094759,09,06,2012,-04,00*77
$GNRMC,094759,A,5956.94117,N,03023.147,E,3.21753,217.02847,090612,,,A*6D
$GNGLL,5956.94117,N,03023.147,E,094759,A,A*5A
$GNVTG,217.02847,T,,,3.21753,N,5.95887,K,A*5C
$GNZDA,094800,09,06,2012,-04,00*74
$GNRMC,094800,A,5956.9405,N,03023.146,E,3.09877,217.42858,090612,,,A*54
$GNGLL,5956.9405,N,03023.146,E,094800,A,A*6A
$GNVTG,217.42858,T,,,3.09877,N,5.73893,K,A*58
$GNZDA,094801,09,06,2012,-04,00*75
$GNRMC,094801,A,5956.93983,N,03023.145,E,2.92299,218.78509,090612,,,A*60
$GNGLL,5956.93983,N,03023.145,E,094801,A,A*58
$GNVTG,218.78509,T,,,2.92299,N,5.41339,K,A*54
$GNZDA,094802,09,06,2012,-04,00*76
$GNRMC,094802,A,5956.93917,N,03023.14417,E,3.10083,208.43244,090612,,,A*6C
$GNGLL,5956.93917,N,03023.14417,E,094802,A,A*51
$GNVTG,208.43244,T,,,3.10083,N,5.74273,K,A*58
$GNZDA,094803,09,06,2012,-04,00*77
$GNRMC,094803,A,5956.93833,N,03023.1435,E,3.18891,199.30909,090612,,,A*50
$GNGLL,5956.93833,N,03023.1435,E,094803,A,A*63
$GNVTG,199.30909,T,,,3.18891,N,5.90585,K,A*52
$GNZDA,094804,09,06,2012,-04,00*70
$GNRMC,094804,A,5956.9375,N,03023.14317,E,3.15395,190.50447,090612,,,A*54
$GNGLL,5956.9375,N,03023.14317,E,094804,A,A*6D
$GNVTG,190.50447,T,,,3.15395,N,5.84111,K,A*54
$GNZDA,094805,09,06,2012,-04,00*71
$GNRMC,094805,A,5956.93667,N,03023.14283,E,3.1312,189.16991,090612,,,A*5A
$GNGLL,5956.93667,N,03023.14283,E,094805,A,A*55
$GNVTG,189.16991,T,,,3.1312,N,5.79899,K,A*69
$GNZDA,094806,09,06,2012,-04,00*72
$GNRMC,094806,A,5956.936,N,03023.14217,E,2.8703,207.06375,090612,,,A*5D
$GNGLL,5956.936,N,03023.14217,E,094806,A,A*5A
$GNVTG,207.06375,T,,,2.8703,N,5.3158,K,A*58
$GNZDA,094807,09,06,2012,-04,00*73
$GNRMC,094807,A,5956.93567,N,03023.14067,E,2.90704,240.34638,090612,,,A*63
$GNGLL,5956.93567,N,03023.14067,E,094807,A,A*5C
$GNVTG,240.34638,T,,,2.90704,N,5.38384,K,A*5B
$GNZDA,094808,09,06,2012,-04,00*7C
$GNRMC,094808,A,5956.9355,N,03023.139,E,2.90304,262.87081,090612,,,A*5F
$GNGLL,5956.9355,N,03023.139,E,094808,A,A*68
$GNVTG,262.87081,T,,,2.90304,N,5.37643,K,A*52
$GNZDA,094809,09,06,2012,-04,00*7D
$GNRMC,094809,A,5956.9355,N,03023.1375,E,2.94461,274.93187,090612,,,A*60
$GNGLL,5956.9355,N,03023.1375,E,094809,A,A*52
$GNVTG,274.93187,T,,,2.94461,N,5.45342,K,A*56
$GNZDA,094810,09,06,2012,-04,00*75
$GNRMC,094810,A,5956.93533,N,03023.13583,E,2.96144,263.37093,090612,,,A*6D
$GNGLL,5956.93533,N,03023.13583,E,094810,A,A*53
$GNVTG,263.37093,T,,,2.96144,N,5.48458,K,A*5B
$GNZDA,094811,09,06,2012,-04,00*74
$GNRMC,094811,A,5956.93533,N,03023.13417,E,3.02954,267.33593,090612,,,A*60
$GNGLL,5956.93533,N,03023.13417,E,094811,A,A*5E
$GNVTG,267.33593,T,,,3.02954,N,5.61071,K,A*5F
$GNZDA,094812,09,06,2012,-04,00*77
$GNRMC,094812,A,5956.93533,N,03023.1325,E,2.86441,267.90612,090612,,,A*51
$GNGLL,5956.93533,N,03023.1325,E,094812,A,A*68
$GNVTG,267.90612,T,,,2.86441,N,5.30488,K,A*5E
$GNZDA,094813,09,06,2012,-04,00*76
$GNRMC,094813,A,5956.93533,N,03023.131,E,2.97535,272.62149,090612,,,A*64
$GNGLL,5956.93533,N,03023.131,E,094813,A,A*5F
$GNVTG,272.62149,T,,,2.97535,N,5.51035,K,A*59
$GNZDA,094814,09,06,2012,-04,00*71
$GNRMC,094814,A,5956.9355,N,03023.12917,E,3.08718,272.83579,090612,,,A*5B
$GNGLL,5956.9355,N,03023.12917,E,094814,A,A*62
$GNVTG,272.83579,T,,,3.08718,N,5.71745,K,A*59
$GNZDA,094815,09,06,2012,-04,00*70
$GNRMC,094815,A,5956.93533,N,03023.1275,E,3.04747,272.57449,090612,,,A*5F
$GNGLL,5956.93533,N,03023.1275,E,094815,A,A*6B
$GNVTG,272.57449,T,,,3.04747,N,5.64391,K,A*5D
$GNZDA,094816,09,06,2012,-04,00*73
$GNRMC,094816,A,5956.93533,N,03023.12583,E,2.99291,269.06116,090612,,,A*6A
$GNGLL,5956.93533,N,03023.12583,E,094816,A,A*54
$GNVTG,269.06116,T,,,2.99291,N,5.54287,K,A*52
$GNZDA,094817,09,06,2012,-04,00*72
$GNRMC,094817,A,5956.93533,N,03023.12417,E,3.04512,269.99028,090612,,,A*64
$GNGLL,5956.93533,N,03023.12417,E,094817,A,A*59
$GNVTG,269.99028,T,,,3.04512,N,5.63957,K,A*53
$GNZDA,094818,09,06,2012,-04,00*7D
$GNRMC,094818,A,5956.93533,N,03023.12233,E,3.05914,270.06561,090612,,,A*66
$GNGLL,5956.93533,N,03023.12233,E,094818,A,A*56
$GNVTG,270.06561,T,,,3.05914,N,5.66553,K,A*53
$GNZDA,094819,09,06,2012,-04,00*7C
$GNRMC,094819,A,5956.93533,N,03023.1205,E,3.13823,269.56755,090612,,,A*5A
$GNGLL,5956.93533,N,03023.1205,E,094819,A,A*60
$GNVTG,269.56755,T,,,3.13823,N,5.81201,K,A*50
$GNZDA,094820,09,06,2012,-04,00*76
$GNDTM,W84,,,,,,,*0F
$GNRMC,094820,A,5956.93533,N,03023.11867,E,3.14698,272.24826,090612,,,A*62
$GNGLL,5956.93533,N,03023.11867,E,094820,A,A*55
$GNVTG,272.24826,T,,,3.14698,N,5.82821,K,A*56
$GNZDA,094821,09,06,2012,-04,00*77
$GNRMC,094821,A,5956.93533,N,03023.117,E,3.13636,270.19466,090612,,,A*6A
$GNGLL,5956.93533,N,03023.117,E,094821,A,A*5A
$GNVTG,270.19466,T,,,3.13636,N,5.80853,K,A*56
$GNZDA,094822,09,06,2012,-04,00*74
$GNRMC,094822,A,5956.93533,N,03023.11533,E,3.08763,267.93173,090612,,,A*65
$GNGLL,5956.93533,N,03023.11533,E,094822,A,A*5B
$GNVTG,267.93173,T,,,3.08763,N,5.71829,K,A*5B
$GNZDA,094823,09,06,2012,-04,00*75
$GNRMC,094823,A,5956.93517,N,03023.11367,E,3.21122,269.20417,090612,,,A*6C
$GNGLL,5956.93517,N,03023.11367,E,094823,A,A*5B
$GNVTG,269.20417,T,,,3.21122,N,5.94718,K,A*54
$GNZDA,094824,09,06,2012,-04,00*72
$GNRMC,094824,A,5956.93517,N,03023.11183,E,3.15864,268.41194,090612,,,A*67
$GNGLL,5956.93517,N,03023.11183,E,094824,A,A*54
$GNVTG,268.41194,T,,,3.15864,N,5.8498,K,A*6E
$GNZDA,094825,09,06,2012,-04,00*73
$GNRMC,094825,A,5956.93517,N,03023.11017,E,3.16876,270.8005,090612,,,A*57
$GNGLL,5956.93517,N,03023.11017,E,094825,A,A*59
$GNVTG,270.8005,T,,,3.16876,N,5.86854,K,A*69
$GNZDA,094826,09,06,2012,-04,00*70
$GNRMC,094826,A,5956.93533,N,03023.1085,E,3.16999,272.38544,090612,,,A*59
$GNGLL,5956.93533,N,03023.1085,E,094826,A,A*66
$GNVTG,272.38544,T,,,3.16999,N,5.87082,K,A*5A
$GNZDA,094827,09,06,2012,-04,00*71
$GNRMC,094827,A,5956.93517,N,03023.10667,E,3.22067,268.84699,090612,,,A*64
$GNGLL,5956.93517,N,03023.10667,E,094827,A,A*5B
$GNVTG,268.84699,T,,,3.22067,N,5.96467,K,A*55
$GNZDA,094828,09,06,2012,-04,00*7E
$GNRMC,094828,A,5956.93517,N,03023.10517,E,3.13122,267.59877,090612,,,A*6C
$GNGLL,5956.93517,N,03023.10517,E,094828,A,A*50
$GNVTG,267.59877,T,,,3.13122,N,5.79902,K,A*59
$GNZDA,094829,09,06,2012,-04,00*7F
$GNRMC,094829,A,5956.93517,N,03023.10333,E,3.17975,269.26785,090612,,,A*67
$GNGLL,5956.93517,N,03023.10333,E,094829,A,A*51
$GNVTG,269.26785,T,,,3.17975,N,5.88889,K,A*5F
$GNZDA,094830,09,06,2012,-04,00*77
$GNRMC,094830,A,5956.93517,N,03023.1015,E,3.2562,271.35299,090612,,,A*65
$GNGLL,5956.93517,N,03023.1015,E,094830,A,A*6E
$GNVTG,271.35299,T,,,3.2562,N,6.03048,K,A*67
$GNZDA,094831,09,06,2012,-04,00*76
$GNRMC,094831,A,5956.93517,N,03023.09967,E,3.22642,272.20014,090612,,,A*63
$GNGLL,5956.93517,N,03023.09967,E,094831,A,A*5B
$GNVTG,272.20014,T,,,3.22642,N,5.97532,K,A*52
$GNZDA,094832,09,06,2012,-04,00*75
$GNRMC,094832,A,5956.93517,N,03023.098,E,3.2722,270.59874,090612,,,A*57
$GNGLL,5956.93517,N,03023.098,E,094832,A,A*58
$GNVTG,270.59874,T,,,3.2722,N,6.06011,K,A*6A
$GNZDA,094833,09,06,2012,-04,00*74
$GNRMC,094833,A,5956.93517,N,03023.09617,E,3.16598,270.73424,090612,,,A*69
$GNGLL,5956.93517,N,03023.09617,E,094833,A,A*51
$GNVTG,270.73424,T,,,3.16598,N,5.86339,K,A*5F
$GNZDA,094834,09,06,2012,-04,00*73
$GNRMC,094834,A,5956.93517,N,03023.0945,E,3.15519,268.70095,090612,,,A*51
$GNGLL,5956.93517,N,03023.0945,E,094834,A,A*67
$GNVTG,268.70095,T,,,3.15519,N,5.8434,K,A*6D
$GNZDA,094835,09,06,2012,-04,00*72
$GNRMC,094835,A,5956.93517,N,03023.09283,E,3.24536,270.03697,090612,,,A*6E
$GNGLL,5956.93517,N,03023.09283,E,094835,A,A*5E
$GNVTG,270.03697,T,,,3.24536,N,6.01041,K,A*57
$GNZDA,094836,09,06,2012,-04,00*71
$GNRMC,094836,A,5956.93517,N,03023.091,E,3.13866,270.65082,090612,,,A*6B
$GNGLL,5956.93517,N,03023.091,E,094836,A,A*55
$GNVTG,270.65082,T,,,3.13866,N,5.8128,K,A*6D
$GNZDA,094837,09,06,2012,-04,00*70
$GNRMC,094837,A,5956.93517,N,03023.08933,E,3.17001,271.93484,090612,,,A*64
$GNGLL,5956.93517,N,03023.08933,E,094837,A,A*5D
$GNVTG,271.93484,T,,,3.17001,N,5.87086,K,A*58
$GNZDA,094838,09,06,2012,-04,00*7F
$GNRMC,094838,A,5956.93517,N,03023.08767,E,3.1952,269.43235,090612,,,A*54
$GNGLL,5956.93517,N,03023.08767,E,094838,A,A*5D
$GNVTG,269.43235,T,,,3.1952,N,5.91751,K,A*62
$GNZDA,094839,09,06,2012,-04,00*7E
$GNRMC,094839,A,5956.93517,N,03023.08583,E,3.21721,269.37835,090612,,,A*6C
$GNGLL,5956.93517,N,03023.08583,E,094839,A,A*54
$GNVTG,269.37835,T,,,3.21721,N,5.95827,K,A*59
$GNZDA,094840,09,06,2012,-04,00*70
$GNRMC,094840,A,5956.93517,N,03023.08417,E,3.14754,270.27166,090612,,,A*6C
$GNGLL,5956.93517,N,03023.08417,E,094840,A,A*56
$GNVTG,270.27166,T,,,3.14754,N,5.82925,K,A*5E
$GNZDA,094841,09,06,2012,-04,00*71
$GNRMC,094841,A,5956.93517,N,03023.0825,E,3.21313,269.24256,090612,,,A*52
$GNGLL,5956.93517,N,03023.0825,E,094841,A,A*62
$GNVTG,269.24256,T,,,3.21313,N,5.95072,K,A*59
$GNZDA,094842,09,06,2012,-04,00*72
$GNRMC,094842,A,5956.93517,N,03023.08067,E,3.19056,269.21232,090612,,,A*69
$GNGLL,5956.93517,N,03023.08067,E,094842,A,A*57
$GNVTG,269.21232,T,,,3.19056,N,5.90891,K,A*57
$GNZDA,094843,09,06,2012,-04,00*73
$GNRMC,094843,A,5956.93517,N,03023.079,E,3.17448,269.51964,090612,,,A*65
$GNGLL,5956.93517,N,03023.079,E,094843,A,A*51
$GNVTG,269.51964,T,,,3.17448,N,5.87914,K,A*57
$GNZDA,094844,09,06,2012,-04,00*74
$GNRMC,094844,A,5956.93533,N,03023.07717,E,3.13479,272.03605,090612,,,A*6F
$GNGLL,5956.93533,N,03023.07717,E,094844,A,A*58
$GNVTG,272.03605,T,,,3.13479,N,5.80562,K,A*5E
$GNZDA,094845,09,06,2012,-04,00*75
$GNRMC,094845,A,5956.93533,N,03023.0755,E,3.08389,273.69702,090612,,,A*56
$GNGLL,5956.93533,N,03023.0755,E,094845,A,A*68
$GNVTG,273.69702,T,,,3.08389,N,5.71137,K,A*5D
$GNZDA,094846,09,06,2012,-04,00*76
$GNRMC,094846,A,5956.93533,N,03023.07383,E,3.06133,273.75845,090612,,,A*61
$GNGLL,5956.93533,N,03023.07383,E,094846,A,A*53
$GNVTG,273.75845,T,,,3.06133,N,5.66959,K,A*57
$GNZDA,094847,09,06,2012,-04,00*77
$GNRMC,094847,A,5956.9355,N,03023.072,E,3.14305,273.71258,090612,,,A*59
$GNGLL,5956.9355,N,03023.072,E,094847,A,A*6D
$GNVTG,273.71258,T,,,3.14305,N,5.82093,K,A*54
$GNZDA,094848,09,06,2012,-04,00*78
$GNRMC,094848,A,5956.9355,N,03023.07033,E,3.11932,272.78206,090612,,,A*5C
$GNGLL,5956.9355,N,03023.07033,E,094848,A,A*60
$GNVTG,272.78206,T,,,3.11932,N,5.77699,K,A*5A
$GNZDA,094849,09,06,2012,-04,00*79
$GNRMC,094849,A,5956.9355,N,03023.06867,E,3.16868,273.8828,090612,,,A*6C
$GNGLL,5956.9355,N,03023.06867,E,094849,A,A*69
$GNVTG,273.8828,T,,,3.16868,N,5.86839,K,A*69
$GNZDA,094850,09,06,2012,-04,00*71
$GNDTM,W84,,,,,,,*0F
$GNRMC,094850,A,5956.93567,N,03023.06683,E,3.17872,274.76718,090612,,,A*6C
$GNGLL,5956.93567,N,03023.06683,E,094850,A,A*51
$GNVTG,274.76718,T,,,3.17872,N,5.88698,K,A*5A
$GNZDA,094851,09,06,2012,-04,00*70
$GNRMC,094851,A,5956.93567,N,03023.065,E,3.19457,274.45099,090612,,,A*6E
$GNGLL,5956.93567,N,03023.065,E,094851,A,A*58
$GNVTG,274.45099,T,,,3.19457,N,5.91634,K,A*5F
$GNZDA,094852,09,06,2012,-04,00*73
$GNRMC,094852,A,5956.93567,N,03023.06333,E,3.21012,275.27436,090612,,,A*61
$GNGLL,5956.93567,N,03023.06333,E,094852,A,A*5D
$GNVTG,275.27436,T,,,3.21012,N,5.94513,K,A*56
$GNZDA,094853,09,06,2012,-04,00*72
$GNRMC,094853,A,5956.93583,N,03023.06167,E,3.24876,276.81127,090612,,,A*6C
$GNGLL,5956.93583,N,03023.06167,E,094853,A,A*55
$GNVTG,276.81127,T,,,3.24876,N,6.0167,K,A*6A
$GNZDA,094854,09,06,2012,-04,00*75
$GNRMC,094854,A,5956.936,N,03023.06,E,3.28918,278.44748,090612,,,A*5E
$GNGLL,5956.936,N,03023.06,E,094854,A,A*6A
$GNVTG,278.44748,T,,,3.28918,N,6.09157,K,A*5D
$GNZDA,094855,09,06,2012,-04,00*74
$GNRMC,094855,A,5956.93617,N,03023.05817,E,3.23907,279.48454,090612,,,A*62
$GNGLL,5956.93617,N,03023.05817,E,094855,A,A*50
$GNVTG,279.48454,T,,,3.23907,N,5.99875,K,A*58
$GNZDA,094856,09,06,2012,-04,00*77
$GNRMC,094856,A,5956.93617,N,03023.0565,E,3.15552,277.38545,090612,,,A*5D
$GNGLL,5956.93617,N,03023.0565,E,094856,A,A*6E
$GNVTG,277.38545,T,,,3.15552,N,5.84403,K,A*58
$GNZDA,094857,09,06,2012,-04,00*76
$GNRMC,094857,A,5956.93633,N,03023.05483,E,3.2124,278.21284,090612,,,A*58
$GNGLL,5956.93633,N,03023.05483,E,094857,A,A*55
$GNVTG,278.21284,T,,,3.2124,N,5.94937,K,A*6D
$GNZDA,094858,09,06,2012,-04,00*79
$GNRMC,094858,A,5956.9365,N,03023.05317,E,3.2059,280.51948,090612,,,A*68
$GNGLL,5956.9365,N,03023.05317,E,094858,A,A*65
$GNVTG,280.51948,T,,,3.2059,N,5.93733,K,A*60
$GNZDA,094859,09,06,2012,-04,00*78
$GNRMC,094859,A,5956.93667,N,03023.05133,E,3.23425,279.53066,090612,,,A*64
$GNGLL,5956.93667,N,03023.05133,E,094859,A,A*54
$GNVTG,279.53066,T,,,3.23425,N,5.98983,K,A*53
$GNZDA,094900,09,06,2012,-04,00*75
$GNRMC,094900,A,5956.93683,N,03023.04967,E,3.24896,278.30641,090612,,,A*6F
$GNGLL,5956.93683,N,03023.04967,E,094900,A,A*5B
$GNVTG,278.30641,T,,,3.24896,N,6.01708,K,A*59
$GNZDA,094901,09,06,2012,-04,00*74
$GNRMC,094901,A,5956.93683,N,03023.04783,E,3.18934,276.1199,090612,,,A*52
$GNGLL,5956.93683,N,03023.04783,E,094901,A,A*5E
$GNVTG,276.1199,T,,,3.18934,N,5.90666,K,A*63
$GNZDA,094902,09,06,2012,-04,00*77
$GNRMC,094902,A,5956.937,N,03023.04617,E,3.21696,281.35017,090612,,,A*62
$GNGLL,5956.937,N,03023.04617,E,094902,A,A*5B
$GNVTG,281.35017,T,,,3.21696,N,5.95781,K,A*5B
$GNZDA,094903,09,06,2012,-04,00*76
$GNRMC,094903,A,5956.93717,N,03023.04433,E,2.97526,279.13722,090612,,,A*67
$GNGLL,5956.93717,N,03023.04433,E,094903,A,A*58
$GNVTG,279.13722,T,,,2.97526,N,5.51019,K,A*53
$GNZDA,094904,09,06,2012,-04,00*71
$GNRMC,094904,A,5956.937,N,03023.04517,E,1.92139,133.15863,090612,,,A*6C
$GNGLL,5956.937,N,03023.04517,E,094904,A,A*5E
$GNVTG,133.15863,T,,,1.92139,N,3.55841,K,A*59
$GNZDA,094905,09,06,2012,-04,00*70
$GNRMC,094905,A,5956.937,N,03023.04317,E,3.44691,271.2174,090612,,,A*5B
$GNGLL,5956.937,N,03023.04317,E,094905,A,A*59
$GNVTG,271.2174,T,,,3.44691,N,6.38367,K,A*68
$GNZDA,094906,09,06,2012,-04,00*73
$GNRMC,094906,A,5956.937,N,03023.04117,E,3.37832,273.35399,090612,,,A*6E
$GNGLL,5956.937,N,03023.04117,E,094906,A,A*58
$GNVTG,273.35399,T,,,3.37832,N,6.25665,K,A*57
$GNZDA,094907,09,06,2012,-04,00*72
$GNRMC,094907,A,5956.937,N,03023.03933,E,3.36683,274.65465,090612,,,A*65
$GNGLL,5956.937,N,03023.03933,E,094907,A,A*50
$GNVTG,274.65465,T,,,3.36683,N,6.23538,K,A*59
$GNZDA,094908,09,06,2012,-04,00*7D
$GNRMC,094908,A,5956.93717,N,03023.03733,E,3.52742,275.84697,090612,,,A*6D
$GNGLL,5956.93717,N,03023.03733,E,094908,A,A*57
$GNVTG,275.84697,T,,,3.52742,N,6.53278,K,A*52
$GNZDA,094909,09,06,2012,-04,00*7C
$GNRMC,094909,A,5956.93733,N,03023.03533,E,3.4057,275.88176,090612,,,A*5C
$GNGLL,5956.93733,N,03023.03533,E,094909,A,A*52
$GNVTG,275.88176,T,,,3.4057,N,6.30735,K,A*6F
$GNZDA,094910,09,06,2012,-04,00*74
$GNRMC,094910,A,5956.93733,N,03023.03333,E,3.43557,274.6167,090612,,,A*53
$GNGLL,5956.93733,N,03023.03333,E,094910,A,A*5C
$GNVTG,274.6167,T,,,3.43557,N,6.36268,K,A*65
$GNZDA,094911,09,06,2012,-04,00*75
$GNRMC,094911,A,5956.93733,N,03023.0315,E,3.42774,271.77283,090612,,,A*5D
$GNGLL,5956.93733,N,03023.0315,E,094911,A,A*6A
$GNVTG,271.77283,T,,,3.42774,N,6.34818,K,A*52
$GNZDA,094912,09,06,2012,-04,00*76
$GNRMC,094912,A,5956.93733,N,03023.0295,E,3.3869,271.19837,090612,,,A*6C
$GNGLL,5956.93733,N,03023.0295,E,094912,A,A*60
$GNVTG,271.19837,T,,,3.3869,N,6.27253,K,A*6E
$GNZDA,094913,09,06,2012,-04,00*77
$GNRMC,094913,A,5956.93733,N,03023.02767,E,3.31685,268.90321,090612,,,A*6F
$GNGLL,5956.93733,N,03023.02767,E,094913,A,A*5B
$GNVTG,268.90321,T,,,3.31685,N,6.14281,K,A*59
$GNZDA,094914,09,06,2012,-04,00*70
$GNRMC,094914,A,5956.93733,N,03023.02567,E,3.37717,269.96537,090612,,,A*60
$GNGLL,5956.93733,N,03023.02567,E,094914,A,A*5E
$GNVTG,269.96537,T,,,3.37717,N,6.25453,K,A*58
$GNZDA,094915,09,06,2012,-04,00*71
$GNRMC,094915,A,5956.93733,N,03023.02383,E,3.40511,269.87078,090612,,,A*67
$GNGLL,5956.93733,N,03023.02383,E,094915,A,A*53
$GNVTG,269.87078,T,,,3.40511,N,6.30626,K,A*56
$GNZDA,094916,09,06,2012,-04,00*72
$GNRMC,094916,A,5956.9375,N,03023.022,E,3.2805,272.61895,090612,,,A*6C
$GNGLL,5956.9375,N,03023.022,E,094916,A,A*6F
$GNVTG,272.61895,T,,,3.2805,N,6.07548,K,A*6E
$GNZDA,094917,09,06,2012,-04,00*73
$GNRMC,094917,A,5956.93767,N,03023.01983,E,4.01629,282.4089,090612,,,A*57
$GNGLL,5956.93767,N,03023.01983,E,094917,A,A*59
$GNVTG,282.4089,T,,,4.01629,N,7.43817,K,A*65
$GNZDA,094918,09,06,2012,-04,00*7C
$GNRMC,094918,A,5956.93783,N,03023.01783,E,3.55617,272.11731,090612,,,A*68
$GNGLL,5956.93783,N,03023.01783,E,094918,A,A*52
$GNVTG,272.11731,T,,,3.55617,N,6.58603,K,A*51
$GNZDA,094919,09,06,2012,-04,00*7D
$GNRMC,094919,A,5956.93783,N,03023.01567,E,3.8757,270.97235,090612,,,A*51
$GNGLL,5956.93783,N,03023.01567,E,094919,A,A*5B
$GNVTG,270.97235,T,,,3.8757,N,7.1778,K,A*51
$GNZDA,094920,09,06,2012,-04,00*77
$GNDTM,W84,,,,,,,*0F
$GNRMC,094920,A,5956.93783,N,03023.01383,E,3.21016,270.166,090612,,,A*65
$GNGLL,5956.93783,N,03023.01383,E,094920,A,A*5D
$GNVTG,270.166,T,,,3.21016,N,5.94522,K,A*50
$GNZDA,094921,09,06,2012,-04,00*76
$GNRMC,094921,A,5956.93817,N,03023.0125,E,2.7643,294.67236,090612,,,A*67
$GNGLL,5956.93817,N,03023.0125,E,094921,A,A*61
$GNVTG,294.67236,T,,,2.7643,N,5.11949,K,A*62
$GNZDA,094922,09,06,2012,-04,00*75
$GNRMC,094922,A,5956.93883,N,03023.0115,E,2.88418,329.54961,090612,,,A*5F
$GNGLL,5956.93883,N,03023.0115,E,094922,A,A*6C
$GNVTG,329.54961,T,,,2.88418,N,5.3415,K,A*60
$GNZDA,094923,09,06,2012,-04,00*74
$GNRMC,094923,A,5956.93967,N,03023.011,E,3.15097,342.46064,090612,,,A*64
$GNGLL,5956.93967,N,03023.011,E,094923,A,A*53
$GNVTG,342.46064,T,,,3.15097,N,5.8356,K,A*6F
$GNZDA,094924,09,06,2012,-04,00*73
$GNRMC,094924,A,5956.9405,N,03023.0105,E,3.21575,346.62567,090612,,,A*67
$GNGLL,5956.9405,N,03023.0105,E,094924,A,A*5A
$GNVTG,346.62567,T,,,3.21575,N,5.95556,K,A*57
$GNZDA,094925,09,06,2012,-04,00*72
$GNRMC,094925,A,5956.9415,N,03023.01017,E,3.23651,353.00089,090612,,,A*56
$GNGLL,5956.9415,N,03023.01017,E,094925,A,A*69
$GNVTG,353.00089,T,,,3.23651,N,5.99402,K,A*59
$GNZDA,094926,09,06,2012,-04,00*71
$GNRMC,094926,A,5956.94233,N,03023.00983,E,3.15183,355.29311,090612,,,A*64
$GNGLL,5956.94233,N,03023.00983,E,094926,A,A*59
$GNVTG,355.29311,T,,,3.15183,N,5.83719,K,A*59
$GNZDA,094927,09,06,2012,-04,00*70
$GNRMC,094927,A,5956.94317,N,03023.00967,E,3.26402,357.586,090612,,,A*65
$GNGLL,5956.94317,N,03023.00967,E,094927,A,A*55
$GNVTG,357.586,T,,,3.26402,N,6.04497,K,A*5D
$GNZDA,094928,09,06,2012,-04,00*7F
$GNRMC,094928,A,5956.94417,N,03023.0095,E,3.17907,358.22792,090612,,,A*5B
$GNGLL,5956.94417,N,03023.0095,E,094928,A,A*69
$GNVTG,358.22792,T,,,3.17907,N,5.88764,K,A*57
$GNZDA,094929,09,06,2012,-04,00*7E
$GNRMC,094929,A,5956.945,N,03023.0095,E,3.2029,4.04898,090612,,,A*67
$GNGLL,5956.945,N,03023.0095,E,094929,A,A*6F
$GNVTG,4.04898,T,,,3.2029,N,5.93177,K,A*63
$GNZDA,094930,09,06,2012,-04,00*76
$GNRMC,094930,A,5956.94583,N,03023.00983,E,3.17656,4.28037,090612,,,A*63
$GNGLL,5956.94583,N,03023.00983,E,094930,A,A*52
$GNVTG,4.28037,T,,,3.17656,N,5.88298,K,A*52
$GNZDA,094931,09,06,2012,-04,00*77
$GNRMC,094931,A,5956.94683,N,03023.01,E,3.24058,3.42795,090612,,,A*5E
$GNGLL,5956.94683,N,03023.01,E,094931,A,A*63
$GNVTG,3.42795,T,,,3.24058,N,6.00155,K,A*5F
$GNZDA,094932,09,06,2012,-04,00*74
$GNRMC,094932,A,5956.94767,N,03023.01,E,3.16262,2.9401,090612,,,A*6C
$GNGLL,5956.94767,N,03023.01,E,094932,A,A*6B
$GNVTG,2.9401,T,,,3.16262,N,5.85717,K,A*6B
$GNZDA,094933,09,06,2012,-04,00*75
$GNRMC,094933,A,5956.9485,N,03023.01,E,3.10765,2.62353,090612,,,A*6F
$GNGLL,5956.9485,N,03023.01,E,094933,A,A*51
$GNVTG,2.62353,T,,,3.10765,N,5.75538,K,A*52
$GNZDA,094934,09,06,2012,-04,00*72
$GNRMC,094934,A,5956.94933,N,03023.01017,E,3.0409,3.6933,090612,,,A*6D
$GNGLL,5956.94933,N,03023.01017,E,094934,A,A*54
$GNVTG,3.6933,T,,,3.0409,N,5.63175,K,A*5F
$GNZDA,094935,09,06,2012,-04,00*73
$GNRMC,094935,A,5956.95,N,03023.01033,E,2.70469,10.50437,090612,,,A*6A
$GNGLL,5956.95,N,03023.01033,E,094935,A,A*6B
$GNVTG,10.50437,T,,,2.70469,N,5.00908,K,A*60
$GNZDA,094936,09,06,2012,-04,00*70
$GNRMC,094936,A,5956.95067,N,03023.01067,E,2.45365,11.97571,090612,,,A*5D
$GNGLL,5956.95067,N,03023.01067,E,094936,A,A*58
$GNVTG,11.97571,T,,,2.45365,N,4.54417,K,A*67
$GNZDA,094937,09,06,2012,-04,00*71
$GNRMC,094937,A,5956.95133,N,03023.01083,E,1.88251,15.56217,090612,,,A*5C
$GNGLL,5956.95133,N,03023.01083,E,094937,A,A*53
$GNVTG,15.56217,T,,,1.88251,N,3.4864,K,A*57
$GNZDA,094938,09,06,2012,-04,00*7E
$GNRMC,094938,A,5956.95183,N,03023.011,E,1.99737,5.20321,090612,,,A*63
$GNGLL,5956.95183,N,03023.011,E,094938,A,A*5D
$GNVTG,5.20321,T,,,1.99737,N,3.69912,K,A*5D
$GNZDA,094939,09,06,2012,-04,00*7F
$GNRMC,094939,A,5956.95233,N,03023.01067,E,1.73793,336.82336,090612,,,A*6D
$GNGLL,5956.95233,N,03023.01067,E,094939,A,A*54
$GNVTG,336.82336,T,,,1.73793,N,3.21865,K,A*57
$GNZDA,094940,09,06,2012,-04,00*71
$GNRMC,094940,A,5956.95283,N,03023.0105,E,1.862,356.63771,090612,,,A*57
$GNGLL,5956.95283,N,03023.0105,E,094940,A,A*65
$GNVTG,356.63771,T,,,1.862,N,3.44842,K,A*5A
$GNZDA,094941,09,06,2012,-04,00*70
$GNRMC,094941,A,5956.95333,N,03023.01067,E,1.76602,357.77038,090612,,,A*6F
$GNGLL,5956.95333,N,03023.01067,E,094941,A,A*5A
$GNVTG,357.77038,T,,,1.76602,N,3.27067,K,A*57
$GNZDA,094942,09,06,2012,-04,00*73
$GNRMC,094942,A,5956.95383,N,03023.01083,E,1.82499,3.26234,090612,,,A*6E
$GNGLL,5956.95383,N,03023.01083,E,094942,A,A*58
$GNVTG,3.26234,T,,,1.82499,N,3.37988,K,A*5D
$GNZDA,094943,09,06,2012,-04,00*72
$GNRMC,094943,A,5956.95433,N,03023.011,E,1.73303,14.75534,090612,,,A*54
$GNGLL,5956.95433,N,03023.011,E,094943,A,A*5F
$GNVTG,14.75534,T,,,1.73303,N,3.20958,K,A*6B
$GNZDA,094944,09,06,2012,-04,00*75
$GNRMC,094944,A,5956.95483,N,03023.01117,E,1.94211,11.34685,090612,,,A*5C
$GNGLL,5956.95483,N,03023.01117,E,094944,A,A*55
$GNVTG,11.34685,T,,,1.94211,N,3.59679,K,A*6B
$GNZDA,094945,09,06,2012,-04,00*74
$GNRMC,094945,A,5956.95517,N,03023.01133,E,1.8878,13.24872,090612,,,A*62
$GNGLL,5956.95517,N,03023.01133,E,094945,A,A*5E
$GNVTG,13.24872,T,,,1.8878,N,3.49621,K,A*52
$GNZDA,094946,09,06,2012,-04,00*77
$GNRMC,094946,A,5956.9555,N,03023.0115,E,1.48566,8.15161,090612,,,A*62
$GNGLL,5956.9555,N,03023.0115,E,094946,A,A*5B
$GNVTG,8.15161,T,,,1.48566,N,2.75144,K,A*5D
$GNZDA,094947,09,06,2012,-04,00*76
$GNRMC,094947,A,5956.95567,N,03023.0115,E,0.26417,319.0177,090612,,,A*69
$GNGLL,5956.95567,N,03023.0115,E,094947,A,A*6E
$GNVTG,319.0177,T,,,0.26417,N,0.48924,K,A*61
$GNZDA,094948,09,06,2012,-04,00*79
$GNRMC,094948,A,5956.95567,N,03023.01167,E,0.10463,161.97107,090612,,,A*60
$GNGLL,5956.95567,N,03023.01167,E,094948,A,A*55
$GNVTG,161.97107,T,,,0.10463,N,0.19377,K,A*5B
$GNZDA,094949,09,06,2012,-04,00*78
$GNRMC,094949,A,5956.9555,N,03023.01167,E,0,,090612,,,A*6B
$GNGLL,5956.9555,N,03023.01167,E,094949,A,A*60
$GNVTG,,,,,0,N,0,K,A*24
$GNZDA,094950,09,06,2012,-04,00*70
$GNDTM,W84,,,,,,,*0F
$GNRMC,094950,A,5956.95533,N,03023.01167,E,0,,090612,,,A*56
$GNGLL,5956.95533,N,03023.01167,E,094950,A,A*5D
$GNVTG,,,,,0,N,0,K,A*24
$GNZDA,094951,09,06,2012,-04,00*71
$GNRMC,094951,A,5956.95533,N,03023.01167,E,0,,090612,,,A*57
$GNGLL,5956.95533,N,03023.01167,E,094951,A,A*5C
$GNVTG,,,,,0,N,0,K,A*24
$GNZDA,094952,09,06,2012,-04,00*72
$GNRMC,094952,A,5956.95517,N,03023.01167,E,0,,090612,,,A*52
$GNGLL,5956.95517,N,03023.01167,E,094952,A,A*59
$GNVTG,,,,,0,N,0,K,A*24
$GNZDA,094953,09,06,2012,-04,00*73
$GNRMC,094953,A,5956.955,N,03023.01183,E,0,,090612,,,A*5F
$GNGLL,5956.955,N,03023.01183,E,094953,A,A*54
$GNVTG,,,,,0,N,0,K,A*24
$GNZDA,094954,09,06,2012,-04,00*74
$GNRMC,094954,A,5956.95483,N,03023.01183,E,0,,090612,,,A*52
$GNGLL,5956.95483,N,03023.01183,E,094954,A,A*59
$GNVTG,,,,,0,N,0,K,A*24
$GNZDA,094955,09,06,2012,-04,00*75
$GNRMC,094955,A,5956.95467,N,03023.012,E,0,,090612,,,A*51
$GNGLL,5956.95467,N,03023.012,E,094955,A,A*5A
$GNVTG,,,,,0,N,0,K,A*24
$GNZDA,094956,09,06,2012,-04,00*76
$GNRMC,094956,A,5956.95467,N,03023.012,E,0,,090612,,,A*52
$GNGLL,5956.95467,N,03023.012,E,094956,A,A*59
$GNVTG,,,,,0,N,0,K,A*24
$GNZDA,094957,09,06,2012,-04,00*77
$GNRMC,094957,A,5956.95467,N,03023.01217,E,0,,090612,,,A*55
$GNGLL,5956.95467,N,03023.01217,E,094957,A,A*5E
$GNVTG,,,,,0,N,0,K,A*24
$GNZDA,094958,09,06,2012,-04,00*78
$GNRMC,094958,A,5956.95467,N,03023.01217,E,0,,090612,,,A*5A
$GNGLL,5956.95467,N,03023.01217,E,094958,A,A*51
$GNVTG,,,,,0,N,0,K,A*24
$GNZDA,094959,09,06,2012,-04,00*79
$GNRMC,094959,A,5956.95483,N,03023.01233,E,0,,090612,,,A*57
$GNGLL,5956.95483,N,03023.01233,E,094959,A,A*5C
$GNVTG,,,,,0,N,0,K,A*24
$GNZDA,095000,09,06,2012,-04,00*7D
$GNRMC,095000,A,5956.95483,N,03023.01233,E,0,,090612,,,A*53
$GNGLL,5956.95483,N,03023.01233,E,095000,A,A*58
$GNVTG,,,,,0,N,0,K,A*24
$GNZDA,095001,09,06,2012,-04,00*7C
$GNRMC,095001,A,5956.95483,N,03023.01233,E,0,,090612,,,A*52
$GNGLL,5956.95483,N,03023.01233,E,095001,A,A*59
$GNVTG,,,,,0,N,0,K,A*24
$GNZDA,095002,09,06,2012,-04,00*7F
$GNRMC,095002,A,5956.95483,N,03023.01217,E,0.05975,320.90692,090612,,,A*6C
$GNGLL,5956.95483,N,03023.01217,E,095002,A,A*5C
$GNVTG,320.90692,T,,,0.05975,N,0.11065,K,A*56
$GNZDA,095003,09,06,2012,-04,00*7E
$GNRMC,095003,A,5956.95483,N,03023.012,E,0.24991,268.41261,090612,,,A*6B
$GNGLL,5956.95483,N,03023.012,E,095003,A,A*5B
$GNVTG,268.41261,T,,,0.24991,N,0.46283,K,A*5E
$GNZDA,095004,09,06,2012,-04,00*79
$GNRMC,095004,A,5956.95483,N,03023.01167,E,0.28828,268.31553,090612,,,A*60
$GNGLL,5956.95483,N,03023.01167,E,095004,A,A*5E
$GNVTG,268.31553,T,,,0.28828,N,0.5339,K,A*67
$GNZDA,095005,09,06,2012,-04,00*78
$GNRMC,095005,A,5956.95483,N,03023.01183,E,0,,090612,,,A*5E
$GNGLL,5956.95483,N,03023.01183,E,095005,A,A*55
$GNVTG,,,,,0,N,0,K,A*24
$GNZDA,095006,09,06,2012,-04,00*7B
$GNRMC,095006,A,5956.95483,N,03023.01183,E,0.07176,358.1284,090612,,,A*5B
$GNGLL,5956.95483,N,03023.01183,E,095006,A,A*56
$GNVTG,358.1284,T,,,0.07176,N,0.13289,K,A*69
$GNZDA,095007,09,06,2012,-04,00*7A
$GNRMC,095007,A,5956.955,N,03023.01167,E,0.62901,2.44735,090612,,,A*63
$GNGLL,5956.955,N,03023.01167,E,095007,A,A*57
$GNVTG,2.44735,T,,,0.62901,N,1.16492,K,A*58
$GNZDA,095008,09,06,2012,-04,00*75
$GNRMC,095008,A,5956.95533,N,03023.01167,E,1.34632,6.67165,090612,,,A*67
$GNGLL,5956.95533,N,03023.01167,E,095008,A,A*58
$GNVTG,6.67165,T,,,1.34632,N,2.49339,K,A*5C
$GNZDA,095009,09,06,2012,-04,00*74
$GNRMC,095009,A,5956.95583,N,03023.01183,E,1.67788,12.97767,090612,,,A*5F
$GNGLL,5956.95583,N,03023.01183,E,095009,A,A*58
$GNVTG,12.97767,T,,,1.67788,N,3.10742,K,A*61
$GNZDA,095010,09,06,2012,-04,00*7C
$GNRMC,095010,A,5956.95633,N,03023.01183,E,2.01611,12.30352,090612,,,A*52
$GNGLL,5956.95633,N,03023.01183,E,095010,A,A*58
$GNVTG,12.30352,T,,,2.01611,N,3.73384,K,A*67
$GNZDA,095011,09,06,2012,-04,00*7D
$GNRMC,095011,A,5956.95683,N,03023.01217,E,1.88608,19.98731,090612,,,A*54
$GNGLL,5956.95683,N,03023.01217,E,095011,A,A*5C
$GNVTG,19.98731,T,,,1.88608,N,3.49302,K,A*62
$GNZDA,095012,09,06,2012,-04,00*7E
$GNRMC,095012,A,5956.95717,N,03023.01317,E,1.94116,54.89134,090612,,,A*55
$GNGLL,5956.95717,N,03023.01317,E,095012,A,A*52
$GNVTG,54.89134,T,,,1.94116,N,3.59503,K,A*6B
$GNZDA,095013,09,06,2012,-04,00*7F
$GNRMC,095013,A,5956.95733,N,03023.0145,E,2.31177,88.60931,090612,,,A*66
$GNGLL,5956.95733,N,03023.0145,E,095013,A,A*61
$GNVTG,88.60931,T,,,2.31177,N,4.2814,K,A*59
$GNZDA,095014,09,06,2012,-04,00*78
$GNRMC,095014,A,5956.95733,N,03023.016,E,2.42133,88.08567,090612,,,A*53
$GNGLL,5956.95733,N,03023.016,E,095014,A,A*51
$GNVTG,88.08567,T,,,2.42133,N,4.4843,K,A*58
$GNZDA,095015,09,06,2012,-04,00*79
$GNRMC,095015,A,5956.9575,N,03023.0175,E,2.80766,90.26604,090612,,,A*58
$GNGLL,5956.9575,N,03023.0175,E,095015,A,A*51
$GNVTG,90.26604,T,,,2.80766,N,5.19979,K,A*66
$GNZDA,095016,09,06,2012,-04,00*7A
$GNRMC,095016,A,5956.95733,N,03023.01883,E,2.79027,91.38807,090612,,,A*58
$GNGLL,5956.95733,N,03023.01883,E,095016,A,A*56
$GNVTG,91.38807,T,,,2.79027,N,5.16758,K,A*63
$GNZDA,095017,09,06,2012,-04,00*7B
$GNRMC,095017,A,5956.95733,N,03023.02033,E,2.81741,93.46186,090612,,,A*52
$GNGLL,5956.95733,N,03023.02033,E,095017,A,A*57
$GNVTG,93.46186,T,,,2.81741,N,5.21784,K,A*6D
$GNZDA,095018,09,06,2012,-04,00*74
$GNRMC,095018,A,5956.9575,N,03023.02217,E,2.7847,92.68107,090612,,,A*5F
$GNGLL,5956.9575,N,03023.02217,E,095018,A,A*69
$GNVTG,92.68107,T,,,2.7847,N,5.15726,K,A*51
$GNZDA,095019,09,06,2012,-04,00*75
$GNRMC,095019,A,5956.9575,N,03023.0235,E,2.67044,90.57534,090612,,,A*5B
$GNGLL,5956.9575,N,03023.0235,E,095019,A,A*5A
$GNVTG,90.57534,T,,,2.67044,N,4.94566,K,A*68
$GNZDA,095020,09,06,2012,-04,00*7F
$GNDTM,W84,,,,,,,*0F
$GNRMC,095020,A,5956.9575,N,03023.025,E,2.7578,92.69658,090612,,,A*58
$GNGLL,5956.9575,N,03023.025,E,095020,A,A*63
$GNVTG,92.69658,T,,,2.7578,N,5.10744,K,A*5D
$GNZDA,095021,09,06,2012,-04,00*7E
$GNRMC,095021,A,5956.9575,N,03023.02667,E,2.96441,91.43322,090612,,,A*6B
$GNGLL,5956.9575,N,03023.02667,E,095021,A,A*60
$GNVTG,91.43322,T,,,2.96441,N,5.49008,K,A*6E
$GNZDA,095022,09,06,2012,-04,00*7D
$GNRMC,095022,A,5956.9575,N,03023.0285,E,3.12151,89.65119,090612,,,A*5C
$GNGLL,5956.9575,N,03023.0285,E,095022,A,A*59
$GNVTG,89.65119,T,,,3.12151,N,5.78103,K,A*68
$GNZDA,095023,09,06,2012,-04,00*7C
$GNRMC,095023,A,5956.9575,N,03023.03033,E,3.35812,94.6992,090612,,,A*58
$GNGLL,5956.9575,N,03023.03033,E,095023,A,A*64
$GNVTG,94.6992,T,,,3.35812,N,6.21925,K,A*52
$GNZDA,095024,09,06,2012,-04,00*7B
$GNRMC,095024,A,5956.9575,N,03023.032,E,3.04775,89.69227,090612,,,A*61
$GNGLL,5956.9575,N,03023.032,E,095024,A,A*61
$GNVTG,89.69227,T,,,3.04775,N,5.64444,K,A*66
$GNZDA,095025,09,06,2012,-04,00*7A
$GNRMC,095025,A,5956.9575,N,03023.0335,E,2.95807,90.47134,090612,,,A*52
$GNGLL,5956.9575,N,03023.0335,E,095025,A,A*54
$GNVTG,90.47134,T,,,2.95807,N,5.47834,K,A*6A
$GNZDA,095026,09,06,2012,-04,00*79
$GNRMC,095026,A,5956.9575,N,03023.03517,E,3.09159,89.74128,090612,,,A*67
$GNGLL,5956.9575,N,03023.03517,E,095026,A,A*62
$GNVTG,89.74128,T,,,3.09159,N,5.72562,K,A*61
$GNZDA,095027,09,06,2012,-04,00*78
$GNRMC,095027,A,5956.95733,N,03023.03683,E,3.09999,93.22616,090612,,,A*5B
$GNGLL,5956.95733,N,03023.03683,E,095027,A,A*58
$GNVTG,93.22616,T,,,3.09999,N,5.74118,K,A*68
$GNZDA,095028,09,06,2012,-04,00*77
$GNRMC,095028,A,5956.95733,N,03023.0385,E,2.99428,92.24769,090612,,,A*65
$GNGLL,5956.95733,N,03023.0385,E,095028,A,A*67
$GNVTG,92.24769,T,,,2.99428,N,5.54541,K,A*63
$GNZDA,095029,09,06,2012,-04,00*76
$GNRMC,095029,A,5956.95733,N,03023.04017,E,2.97223,94.62378,090612,,,A*5B
$GNGLL,5956.95733,N,03023.04017,E,095029,A,A*5A
$GNVTG,94.62378,T,,,2.97223,N,5.50456,K,A*63
$GNZDA,095030,09,06,2012,-04,00*7E
$GNRMC,095030,A,5956.95733,N,03023.04167,E,2.82367,91.2809,090612,,,A*6E
$GNGLL,5956.95733,N,03023.04167,E,095030,A,A*54
$GNVTG,91.2809,T,,,2.82367,N,5.22944,K,A*53
$GNZDA,095031,09,06,2012,-04,00*7F
$GNRMC,095031,A,5956.95733,N,03023.04333,E,2.94371,89.74968,090612,,,A*52
$GNGLL,5956.95733,N,03023.04333,E,095031,A,A*56
$GNVTG,89.74968,T,,,2.94371,N,5.45175,K,A*66
$GNZDA,095032,09,06,2012,-04,00*7C
$GNRMC,095032,A,5956.95733,N,03023.04483,E,2.8045,85.38777,090612,,,A*68
$GNGLL,5956.95733,N,03023.04483,E,095032,A,A*59
$GNVTG,85.38777,T,,,2.8045,N,5.19393,K,A*50
$GNZDA,095033,09,06,2012,-04,00*7D
$GNRMC,095033,A,5956.95733,N,03023.0465,E,2.97873,94.45304,090612,,,A*64
$GNGLL,5956.95733,N,03023.0465,E,095033,A,A*64
$GNVTG,94.45304,T,,,2.97873,N,5.51661,K,A*65
$GNZDA,095034,09,06,2012,-04,00*7A
$GNRMC,095034,A,5956.95733,N,03023.048,E,2.98761,90.06885,090612,,,A*5A
$GNGLL,5956.95733,N,03023.048,E,095034,A,A*58
$GNVTG,90.06885,T,,,2.98761,N,5.53306,K,A*61
$GNZDA,095035,09,06,2012,-04,00*7B
$GNRMC,095035,A,5956.95717,N,03023.04983,E,2.96593,94.62728,090612,,,A*58
$GNGLL,5956.95717,N,03023.04983,E,095035,A,A*55
$GNVTG,94.62728,T,,,2.96593,N,5.4929,K,A*5B
$GNZDA,095036,09,06,2012,-04,00*78
$GNRMC,095036,A,5956.95717,N,03023.0515,E,2.97487,87.75704,090612,,,A*63
$GNGLL,5956.95717,N,03023.0515,E,095036,A,A*61
$GNVTG,87.75704,T,,,2.97487,N,5.50946,K,A*6C
$GNZDA,095037,09,06,2012,-04,00*79
$GNRMC,095037,A,5956.95717,N,03023.05317,E,3.06255,92.03828,090612,,,A*57
$GNGLL,5956.95717,N,03023.05317,E,095037,A,A*51
$GNVTG,92.03828,T,,,3.06255,N,5.67183,K,A*6D
$GNZDA,095038,09,06,2012,-04,00*76
$GNRMC,095038,A,5956.95717,N,03023.05483,E,3.20501,89.82662,090612,,,A*53
$GNGLL,5956.95717,N,03023.05483,E,095038,A,A*54
$GNVTG,89.82662,T,,,3.20501,N,5.93567,K,A*69
$GNZDA,095039,09,06,2012,-04,00*77
$GNRMC,095039,A,5956.95717,N,03023.0565,E,3.19134,89.92093,090612,,,A*6F
$GNGLL,5956.95717,N,03023.0565,E,095039,A,A*69
$GNVTG,89.92093,T,,,3.19134,N,5.91036,K,A*6B
$GNZDA,095040,09,06,2012,-04,00*79
$GNRMC,095040,A,5956.95717,N,03023.058,E,3.01649,89.3663,090612,,,A*6F
$GNGLL,5956.95717,N,03023.058,E,095040,A,A*5C
$GNVTG,89.3663,T,,,3.01649,N,5.58654,K,A*59
$GNZDA,095041,09,06,2012,-04,00*78
$GNRMC,095041,A,5956.95717,N,03023.05967,E,3.05623,92.69599,090612,,,A*56
$GNGLL,5956.95717,N,03023.05967,E,095041,A,A*5D
$GNVTG,92.69599,T,,,3.05623,N,5.66013,K,A*69
$GNZDA,095042,09,06,2012,-04,00*7B
$GNRMC,095042,A,5956.95717,N,03023.06133,E,3.20204,91.18194,090612,,,A*55
$GNGLL,5956.95717,N,03023.06133,E,095042,A,A*54
$GNVTG,91.18194,T,,,3.20204,N,5.93017,K,A*6D
$GNZDA,095043,09,06,2012,-04,00*7A
$GNRMC,095043,A,5956.95717,N,03023.063,E,3.04969,93.64337,090612,,,A*52
$GNGLL,5956.95717,N,03023.063,E,095043,A,A*57
$GNVTG,93.64337,T,,,3.04969,N,5.64802,K,A*6D
$GNZDA,095044,09,06,2012,-04,00*7D
$GNRMC,095044,A,5956.95717,N,03023.06483,E,3.03553,92.30548,090612,,,A*55
$GNGLL,5956.95717,N,03023.06483,E,095044,A,A*5C
$GNVTG,92.30548,T,,,3.03553,N,5.62179,K,A*62
