$GNZDA,104110,09,06,2012,-04,00*74
$GNDTM,W84,,,,,,,*0F
$GNRMC,104110,A,5957.01383,N,03023.23917,E,0,,090612,,,A*5C
$GNGLL,5957.01383,N,03023.23917,E,104110,A,A*57
$GNVTG,,,,,0,N,0,K,A*24
$GNZDA,104111,09,06,2012,-04,00*75
$GNRMC,104111,A,5957.012,N,03023.241,E,0.08491,9.85812,090612,,,A*65
$GNGLL,5957.012,N,03023.241,E,104111,A,A*55
$GNVTG,9.85812,T,,,0.08491,N,0.15725,K,A*51
$GNZDA,104112,09,06,2012,-04,00*76
$GNRMC,104112,A,5957.013,N,03023.241,E,0,,090612,,,A*5C
$GNGLL,5957.013,N,03023.241,E,104112,A,A*57
$GNVTG,,,,,0,N,0,K,A*24
$GNZDA,104113,09,06,2012,-04,00*77
$GNRMC,104113,A,5957.01333,N,03023.24117,E,0,,090612,,,A*5B
$GNGLL,5957.01333,N,03023.24117,E,104113,A,A*50
$GNVTG,,,,,0,N,0,K,A*24
$GNZDA,104114,09,06,2012,-04,00*70
$GNRMC,104114,A,5957.01267,N,03023.242,E,0,,090612,,,A*59
$GNGLL,5957.01267,N,03023.242,E,104114,A,A*52
$GNVTG,,,,,0,N,0,K,A*24
$GNZDA,104115,09,06,2012,-04,00*71
$GNRMC,104115,A,5957.0125,N,03023.24217,E,0,,090612,,,A*6A
$GNGLL,5957.0125,N,03023.24217,E,104115,A,A*61
$GNVTG,,,,,0,N,0,K,A*24
$GNZDA,104116,09,06,2012,-04,00*72
$GNRMC,104116,A,5957.01283,N,03023.242,E,0,,090612,,,A*51
$GNGLL,5957.01283,N,03023.242,E,104116,A,A*5A
$GNVTG,,,,,0,N,0,K,A*24
$GNZDA,104117,09,06,2012,-04,00*73
$GNRMC,104117,A,5957.01333,N,03023.24183,E,0,,090612,,,A*52
$GNGLL,5957.01333,N,03023.24183,E,104117,A,A*59
$GNVTG,,,,,0,N,0,K,A*24
$GNZDA,104118,09,06,2012,-04,00*7C
$GNRMC,104118,A,5957.01333,N,03023.24183,E,0,,090612,,,A*5D
$GNGLL,5957.01333,N,03023.24183,E,104118,A,A*56
$GNVTG,,,,,0,N,0,K,A*24
$GNZDA,104119,09,06,2012,-04,00*7D
$GNRMC,104119,A,5957.01333,N,03023.24183,E,0,,090612,,,A*5C
$GNGLL,5957.01333,N,03023.24183,E,104119,A,A*57
$GNVTG,,,,,0,N,0,K,A*24
$GNZDA,104120,09,06,2012,-04,00*77
$GNRMC,104120,A,5957.01333,N,03023.24167,E,0,,090612,,,A*5C
$GNGLL,5957.01333,N,03023.24167,E,104120,A,A*57
$GNVTG,,,,,0,N,0,K,A*24
$GNZDA,104121,09,06,2012,-04,00*76
$GNRMC,104121,A,5957.0135,N,03023.24133,E,0,,090612,,,A*69
$GNGLL,5957.0135,N,03023.24133,E,104121,A,A*62
$GNVTG,,,,,0,N,0,K,A*24
$GNZDA,104122,09,06,2012,-04,00*75
$GNRMC,104122,A,5957.0135,N,03023.24117,E,0,,090612,,,A*6C
$GNGLL,5957.0135,N,03023.24117,E,104122,A,A*67
$GNVTG,,,,,0,N,0,K,A*24
$GNZDA,104123,09,06,2012,-04,00*74
$GNRMC,104123,A,5957.01367,N,03023.241,E,0,,090612,,,A*5F
$GNGLL,5957.01367,N,03023.241,E,104123,A,A*54
$GNVTG,,,,,0,N,0,K,A*24
$GNZDA,104124,09,06,2012,-04,00*73
$GNRMC,104124,A,5957.0135,N,03023.24117,E,0,,090612,,,A*6A
$GNGLL,5957.0135,N,03023.24117,E,104124,A,A*61
$GNVTG,,,,,0,N,0,K,A*24
$GNZDA,104125,09,06,2012,-04,00*72
$GNRMC,104125,A,5957.01367,N,03023.24083,E,0.45962,274.94575,090612,,,A*64
$GNGLL,5957.01367,N,03023.24083,E,104125,A,A*58
$GNVTG,274.94575,T,,,0.45962,N,0.85122,K,A*55
$GNZDA,104126,09,06,2012,-04,00*71
$GNRMC,104126,A,5957.01333,N,03023.24033,E,1.1706,275.29549,090612,,,A*58
$GNGLL,5957.01333,N,03023.24033,E,104126,A,A*51
$GNVTG,275.29549,T,,,1.1706,N,2.16795,K,A*62
$GNZDA,104127,09,06,2012,-04,00*70
$GNRMC,104127,A,5957.01333,N,03023.23967,E,1.55388,278.92466,090612,,,A*64
$GNGLL,5957.01333,N,03023.23967,E,104127,A,A*5F
$GNVTG,278.92466,T,,,1.55388,N,2.87778,K,A*5B
$GNZDA,104128,09,06,2012,-04,00*7F
$GNRMC,104128,A,5957.01317,N,03023.239,E,1.80626,272.65784,090612,,,A*68
$GNGLL,5957.01317,N,03023.239,E,104128,A,A*57
$GNVTG,272.65784,T,,,1.80626,N,3.34519,K,A*53
$GNZDA,104129,09,06,2012,-04,00*7E
$GNRMC,104129,A,5957.01317,N,03023.23817,E,1.86462,274.07338,090612,,,A*6B
$GNGLL,5957.01317,N,03023.23817,E,104129,A,A*51
$GNVTG,274.07338,T,,,1.86462,N,3.45327,K,A*5B
$GNZDA,104130,09,06,2012,-04,00*76
$GNRMC,104130,A,5957.01317,N,03023.23717,E,2.01954,272.13404,090612,,,A*63
$GNGLL,5957.01317,N,03023.23717,E,104130,A,A*56
$GNVTG,272.13404,T,,,2.01954,N,3.74018,K,A*59
$GNZDA,104131,09,06,2012,-04,00*77
$GNRMC,104131,A,5957.01317,N,03023.236,E,1.90401,270.01297,090612,,,A*6E
$GNGLL,5957.01317,N,03023.236,E,104131,A,A*50
$GNVTG,270.01297,T,,,1.90401,N,3.52622,K,A*59
$GNZDA,104132,09,06,2012,-04,00*74
$GNRMC,104132,A,5957.01317,N,03023.23483,E,2.05229,273.68622,090612,,,A*61
$GNGLL,5957.01317,N,03023.23483,E,104132,A,A*5A
$GNVTG,273.68622,T,,,2.05229,N,3.80085,K,A*58
$GNZDA,104133,09,06,2012,-04,00*75
$GNRMC,104133,A,5957.01317,N,03023.23367,E,2.05882,271.62997,090612,,,A*6F
$GNGLL,5957.01317,N,03023.23367,E,104133,A,A*56
$GNVTG,271.62997,T,,,2.05882,N,3.81293,K,A*5E
$GNZDA,104134,09,06,2012,-04,00*72
$GNRMC,104134,A,5957.01317,N,03023.2325,E,2.14006,272.05916,090612,,,A*52
$GNGLL,5957.01317,N,03023.2325,E,104134,A,A*64
$GNVTG,272.05916,T,,,2.14006,N,3.96339,K,A*56
$GNZDA,104135,09,06,2012,-04,00*73
$GNRMC,104135,A,5957.014,N,03023.23033,E,2.10461,268.0463,090612,,,A*55
$GNGLL,5957.014,N,03023.23033,E,104135,A,A*53
$GNVTG,268.0463,T,,,2.10461,N,3.89773,K,A*62
$GNZDA,104136,09,06,2012,-04,00*70
$GNRMC,104136,A,5957.01383,N,03023.22933,E,2.10005,273.16688,090612,,,A*6E
$GNGLL,5957.01383,N,03023.22933,E,104136,A,A*54
$GNVTG,273.16688,T,,,2.10005,N,3.88929,K,A*5E
$GNZDA,104137,09,06,2012,-04,00*71
$GNRMC,104137,A,5957.01383,N,03023.228,E,2.17328,274.16085,090612,,,A*69
$GNGLL,5957.01383,N,03023.228,E,104137,A,A*54
$GNVTG,274.16085,T,,,2.17328,N,4.02492,K,A*51
$GNZDA,104138,09,06,2012,-04,00*7E
$GNRMC,104138,A,5957.014,N,03023.227,E,2.13088,271.73156,090612,,,A*61
$GNGLL,5957.014,N,03023.227,E,104138,A,A*58
$GNVTG,271.73156,T,,,2.13088,N,3.94638,K,A*5F
$GNZDA,104139,09,06,2012,-04,00*7F
$GNRMC,104139,A,5957.01417,N,03023.2255,E,2.24686,272.83698,090612,,,A*54
$GNGLL,5957.01417,N,03023.2255,E,104139,A,A*68
$GNVTG,272.83698,T,,,2.24686,N,4.16119,K,A*53
$GNZDA,104140,09,06,2012,-04,00*71
$GNDTM,W84,,,,,,,*0F
$GNRMC,104140,A,5957.01417,N,03023.22433,E,2.27982,272.55106,090612,,,A*6D
$GNGLL,5957.01417,N,03023.22433,E,104140,A,A*52
$GNVTG,272.55106,T,,,2.27982,N,4.22222,K,A*5C
$GNZDA,104141,09,06,2012,-04,00*70
$GNRMC,104141,A,5957.01417,N,03023.223,E,2.22234,270.46557,090612,,,A*68
$GNGLL,5957.01417,N,03023.223,E,104141,A,A*54
$GNVTG,270.46557,T,,,2.22234,N,4.11577,K,A*58
$GNZDA,104142,09,06,2012,-04,00*73
$GNRMC,104142,A,5957.01417,N,03023.22167,E,2.29069,270.78275,090612,,,A*63
$GNGLL,5957.01417,N,03023.22167,E,104142,A,A*54
$GNVTG,270.78275,T,,,2.29069,N,4.24236,K,A*57
$GNZDA,104143,09,06,2012,-04,00*72
$GNRMC,104143,A,5957.01417,N,03023.2205,E,2.33452,273.00692,090612,,,A*51
$GNGLL,5957.01417,N,03023.2205,E,104143,A,A*60
$GNVTG,273.00692,T,,,2.33452,N,4.32353,K,A*54
$GNZDA,104144,09,06,2012,-04,00*75
$GNRMC,104144,A,5957.01433,N,03023.21917,E,2.37707,271.81939,090612,,,A*6B
$GNGLL,5957.01433,N,03023.21917,E,104144,A,A*58
$GNVTG,271.81939,T,,,2.37707,N,4.40234,K,A*53
$GNZDA,104145,09,06,2012,-04,00*74
$GNRMC,104145,A,5957.01417,N,03023.21783,E,2.31838,273.41697,090612,,,A*6F
$GNGLL,5957.01417,N,03023.21783,E,104145,A,A*5C
$GNVTG,273.41697,T,,,2.31838,N,4.29365,K,A*59
$GNZDA,104146,09,06,2012,-04,00*77
$GNRMC,104146,A,5957.01433,N,03023.21633,E,2.40729,273.22397,090612,,,A*69
$GNGLL,5957.01433,N,03023.21633,E,104146,A,A*53
$GNVTG,273.22397,T,,,2.40729,N,4.4583,K,A*61
$GNZDA,104147,09,06,2012,-04,00*76
$GNRMC,104147,A,5957.01433,N,03023.215,E,2.38932,271.26756,090612,,,A*6F
$GNGLL,5957.01433,N,03023.215,E,104147,A,A*51
$GNVTG,271.26756,T,,,2.38932,N,4.42502,K,A*5E
$GNZDA,104148,09,06,2012,-04,00*79
$GNRMC,104148,A,5957.01433,N,03023.21367,E,2.39994,273.67721,090612,,,A*6D
$GNGLL,5957.01433,N,03023.21367,E,104148,A,A*59
$GNVTG,273.67721,T,,,2.39994,N,4.44469,K,A*5E
$GNZDA,104149,09,06,2012,-04,00*78
$GNRMC,104149,A,5957.01433,N,03023.21233,E,2.37402,269.18662,090612,,,A*65
$GNGLL,5957.01433,N,03023.21233,E,104149,A,A*58
$GNVTG,269.18662,T,,,2.37402,N,4.39668,K,A*5E
$GNZDA,104150,09,06,2012,-04,00*70
$GNRMC,104150,A,5957.01433,N,03023.211,E,2.30122,271.05012,090612,,,A*6A
$GNGLL,5957.01433,N,03023.211,E,104150,A,A*53
$GNVTG,271.05012,T,,,2.30122,N,4.26186,K,A*53
$GNZDA,104151,09,06,2012,-04,00*71
$GNRMC,104151,A,5957.01433,N,03023.20983,E,2.3513,271.70808,090612,,,A*5E
$GNGLL,5957.01433,N,03023.20983,E,104151,A,A*50
$GNVTG,271.70808,T,,,2.3513,N,4.35462,K,A*69
$GNZDA,104152,09,06,2012,-04,00*72
$GNRMC,104152,A,5957.01433,N,03023.2085,E,2.28565,269.79249,090612,,,A*55
$GNGLL,5957.01433,N,03023.2085,E,104152,A,A*6C
$GNVTG,269.79249,T,,,2.28565,N,4.23303,K,A*59
$GNZDA,104153,09,06,2012,-04,00*73
$GNRMC,104153,A,5957.01433,N,03023.20717,E,2.28689,269.20055,090612,,,A*6A
$GNGLL,5957.01433,N,03023.20717,E,104153,A,A*51
$GNVTG,269.20055,T,,,2.28689,N,4.23533,K,A*5E
$GNZDA,104154,09,06,2012,-04,00*74
$GNRMC,104154,A,5957.01433,N,03023.20583,E,2.24969,272.64973,090612,,,A*68
$GNGLL,5957.01433,N,03023.20583,E,104154,A,A*59
$GNVTG,272.64973,T,,,2.24969,N,4.16643,K,A*56
$GNZDA,104155,09,06,2012,-04,00*75
$GNRMC,104155,A,5957.01433,N,03023.20467,E,2.29114,273.35681,090612,,,A*6A
$GNGLL,5957.01433,N,03023.20467,E,104155,A,A*53
$GNVTG,273.35681,T,,,2.29114,N,4.24318,K,A*54
$GNZDA,104156,09,06,2012,-04,00*76
$GNRMC,104156,A,5957.01433,N,03023.2035,E,2.23912,275.71379,090612,,,A*5A
$GNGLL,5957.01433,N,03023.2035,E,104156,A,A*63
$GNVTG,275.71379,T,,,2.23912,N,4.14686,K,A*55
$GNZDA,104157,09,06,2012,-04,00*77
$GNRMC,104157,A,5957.01433,N,03023.20217,E,2.32931,274.00072,090612,,,A*67
$GNGLL,5957.01433,N,03023.20217,E,104157,A,A*50
$GNVTG,274.00072,T,,,2.32931,N,4.31387,K,A*58
$GNZDA,104158,09,06,2012,-04,00*78
$GNRMC,104158,A,5957.01433,N,03023.201,E,2.26041,271.27668,090612,,,A*6B
$GNGLL,5957.01433,N,03023.201,E,104158,A,A*5A
$GNVTG,271.27668,T,,,2.26041,N,4.18627,K,A*5A
$GNZDA,104159,09,06,2012,-04,00*79
$GNRMC,104159,A,5957.01433,N,03023.1995,E,2.39996,271.46094,090612,,,A*52
$GNGLL,5957.01433,N,03023.1995,E,104159,A,A*6C
$GNVTG,271.46094,T,,,2.39996,N,4.44472,K,A*5E
$GNZDA,104200,09,06,2012,-04,00*76
$GNRMC,104200,A,5957.01433,N,03023.19817,E,2.34142,270.00972,090612,,,A*61
$GNGLL,5957.01433,N,03023.19817,E,104200,A,A*51
$GNVTG,270.00972,T,,,2.34142,N,4.33631,K,A*55
$GNZDA,104201,09,06,2012,-04,00*77
$GNRMC,104201,A,5957.01433,N,03023.197,E,2.32841,272.85159,090612,,,A*6B
$GNGLL,5957.01433,N,03023.197,E,104201,A,A*59
$GNVTG,272.85159,T,,,2.32841,N,4.31221,K,A*50
$GNZDA,104202,09,06,2012,-04,00*74
$GNRMC,104202,A,5957.01417,N,03023.19567,E,2.40572,271.71253,090612,,,A*64
$GNGLL,5957.01417,N,03023.19567,E,104202,A,A*5F
$GNVTG,271.71253,T,,,2.40572,N,4.4554,K,A*6A
$GNZDA,104203,09,06,2012,-04,00*75
$GNRMC,104203,A,5957.01417,N,03023.19433,E,2.39769,272.05297,090612,,,A*6B
$GNGLL,5957.01417,N,03023.19433,E,104203,A,A*5E
$GNVTG,272.05297,T,,,2.39769,N,4.44053,K,A*52
$GNZDA,104204,09,06,2012,-04,00*72
$GNRMC,104204,A,5957.01433,N,03023.193,E,2.4179,273.83954,090612,,,A*5F
$GNGLL,5957.01433,N,03023.193,E,104204,A,A*58
$GNVTG,273.83954,T,,,2.4179,N,4.47794,K,A*6F
$GNZDA,104205,09,06,2012,-04,00*73
$GNRMC,104205,A,5957.01433,N,03023.19167,E,2.39938,273.66328,090612,,,A*64
$GNGLL,5957.01433,N,03023.19167,E,104205,A,A*5A
$GNVTG,273.66328,T,,,2.39938,N,4.44365,K,A*5F
$GNZDA,104206,09,06,2012,-04,00*70
$GNRMC,104206,A,5957.01433,N,03023.19033,E,2.40344,270.86247,090612,,,A*6D
$GNGLL,5957.01433,N,03023.19033,E,104206,A,A*59
$GNVTG,270.86247,T,,,2.40344,N,4.45118,K,A*5C
$GNZDA,104207,09,06,2012,-04,00*71
$GNRMC,104207,A,5957.01433,N,03023.18883,E,2.40892,271.1791,090612,,,A*5E
$GNGLL,5957.01433,N,03023.18883,E,104207,A,A*5A
$GNVTG,271.1791,T,,,2.40892,N,4.46132,K,A*67
$GNZDA,104208,09,06,2012,-04,00*7E
$GNRMC,104208,A,5957.01433,N,03023.18767,E,2.37294,272.079,090612,,,A*6B
$GNGLL,5957.01433,N,03023.18767,E,104208,A,A*50
$GNVTG,272.079,T,,,2.37294,N,4.39469,K,A*5B
$GNZDA,104209,09,06,2012,-04,00*7F
$GNRMC,104209,A,5957.01433,N,03023.18617,E,2.39883,273.35896,090612,,,A*60
$GNGLL,5957.01433,N,03023.18617,E,104209,A,A*57
$GNVTG,273.35896,T,,,2.39883,N,4.44263,K,A*51
$GNZDA,104210,09,06,2012,-04,00*77
$GNDTM,W84,,,,,,,*0F
$GNRMC,104210,A,5957.0145,N,03023.18483,E,2.42608,272.20152,090612,,,A*57
$GNGLL,5957.0145,N,03023.18483,E,104210,A,A*65
$GNVTG,272.20152,T,,,2.42608,N,4.49309,K,A*54
$GNZDA,104211,09,06,2012,-04,00*76
$GNRMC,104211,A,5957.0145,N,03023.1835,E,2.39546,272.98828,090612,,,A*6D
$GNGLL,5957.0145,N,03023.1835,E,104211,A,A*5D
$GNVTG,272.98828,T,,,2.39546,N,4.4364,K,A*64
$GNZDA,104212,09,06,2012,-04,00*75
$GNRMC,104212,A,5957.01467,N,03023.18217,E,2.41926,268.85344,090612,,,A*6B
$GNGLL,5957.01467,N,03023.18217,E,104212,A,A*58
$GNVTG,268.85344,T,,,2.41926,N,4.48047,K,A*5D
$GNZDA,104213,09,06,2012,-04,00*74
$GNRMC,104213,A,5957.01467,N,03023.18067,E,2.50347,269.4183,090612,,,A*53
$GNGLL,5957.01467,N,03023.18067,E,104213,A,A*5C
$GNVTG,269.4183,T,,,2.50347,N,4.63642,K,A*6B
$GNZDA,104214,09,06,2012,-04,00*73
$GNRMC,104214,A,5957.01467,N,03023.17933,E,2.52796,275.91969,090612,,,A*64
$GNGLL,5957.01467,N,03023.17933,E,104214,A,A*5C
$GNVTG,275.91969,T,,,2.52796,N,4.68177,K,A*56
$GNZDA,104215,09,06,2012,-04,00*72
$GNRMC,104215,A,5957.01467,N,03023.178,E,2.5249,275.23576,090612,,,A*5A
$GNGLL,5957.01467,N,03023.178,E,104215,A,A*5C
$GNVTG,275.23576,T,,,2.5249,N,4.67612,K,A*63
$GNZDA,104216,09,06,2012,-04,00*71
$GNRMC,104216,A,5957.01467,N,03023.17683,E,2.43722,274.73445,090612,,,A*63
$GNGLL,5957.01467,N,03023.17683,E,104216,A,A*5A
$GNVTG,274.73445,T,,,2.43722,N,4.51373,K,A*5B
$GNZDA,104217,09,06,2012,-04,00*70
$GNRMC,104217,A,5957.01467,N,03023.17533,E,2.55698,274.86306,090612,,,A*67
$GNGLL,5957.01467,N,03023.17533,E,104217,A,A*53
$GNVTG,274.86306,T,,,2.55698,N,4.73553,K,A*52
$GNZDA,104218,09,06,2012,-04,00*7F
$GNRMC,104218,A,5957.01467,N,03023.174,E,2.49994,272.42435,090612,,,A*6E
$GNGLL,5957.01467,N,03023.174,E,104218,A,A*5D
$GNVTG,272.42435,T,,,2.49994,N,4.62989,K,A*5E
$GNZDA,104219,09,06,2012,-04,00*7E
$GNRMC,104219,A,5957.01467,N,03023.1725,E,2.49061,271.99453,090612,,,A*5A
$GNGLL,5957.01467,N,03023.1725,E,104219,A,A*6F
$GNVTG,271.99453,T,,,2.49061,N,4.61262,K,A*55
$GNZDA,104220,09,06,2012,-04,00*74
$GNRMC,104220,A,5957.01467,N,03023.17117,E,2.37439,269.11428,090612,,,A*65
$GNGLL,5957.01467,N,03023.17117,E,104220,A,A*55
$GNVTG,269.11428,T,,,2.37439,N,4.39737,K,A*58
$GNZDA,104221,09,06,2012,-04,00*75
$GNRMC,104221,A,5957.01467,N,03023.16983,E,2.43828,265.49385,090612,,,A*6E
$GNGLL,5957.01467,N,03023.16983,E,104221,A,A*50
$GNVTG,265.49385,T,,,2.43828,N,4.51569,K,A*51
$GNZDA,104222,09,06,2012,-04,00*76
$GNRMC,104222,A,5957.0145,N,03023.1685,E,2.50378,264.16685,090612,,,A*64
$GNGLL,5957.0145,N,03023.1685,E,104222,A,A*58
$GNVTG,264.16685,T,,,2.50378,N,4.637,K,A*5F
$GNZDA,104223,09,06,2012,-04,00*77
$GNRMC,104223,A,5957.0145,N,03023.16717,E,2.45955,262.75271,090612,,,A*54
$GNGLL,5957.0145,N,03023.16717,E,104223,A,A*65
$GNVTG,262.75271,T,,,2.45955,N,4.55508,K,A*5D
$GNZDA,104224,09,06,2012,-04,00*70
$GNRMC,104224,A,5957.01433,N,03023.166,E,2.37344,254.27036,090612,,,A*6D
$GNGLL,5957.01433,N,03023.166,E,104224,A,A*50
$GNVTG,254.27036,T,,,2.37344,N,4.3956,K,A*65
$GNZDA,104225,09,06,2012,-04,00*71
$GNRMC,104225,A,5957.014,N,03023.16483,E,2.27691,241.02045,090612,,,A*6E
$GNGLL,5957.014,N,03023.16483,E,104225,A,A*58
$GNVTG,241.02045,T,,,2.27691,N,4.21684,K,A*5E
$GNZDA,104226,09,06,2012,-04,00*72
$GNRMC,104226,A,5957.01367,N,03023.164,E,2.34752,227.40661,090612,,,A*6A
$GNGLL,5957.01367,N,03023.164,E,104226,A,A*56
$GNVTG,227.40661,T,,,2.34752,N,4.34761,K,A*5A
$GNZDA,104227,09,06,2012,-04,00*73
$GNRMC,104227,A,5957.01317,N,03023.16317,E,2.34103,219.05864,090612,,,A*68
$GNGLL,5957.01317,N,03023.16317,E,104227,A,A*51
$GNVTG,219.05864,T,,,2.34103,N,4.33559,K,A*51
$GNZDA,104228,09,06,2012,-04,00*7C
$GNRMC,104228,A,5957.0125,N,03023.16267,E,2.32962,201.11692,090612,,,A*51
$GNGLL,5957.0125,N,03023.16267,E,104228,A,A*6A
$GNVTG,201.11692,T,,,2.32962,N,4.31445,K,A*5D
$GNZDA,104229,09,06,2012,-04,00*7D
$GNRMC,104229,A,5957.01183,N,03023.16233,E,2.4586,190.85204,090612,,,A*52
$GNGLL,5957.01183,N,03023.16233,E,104229,A,A*57
$GNVTG,190.85204,T,,,2.4586,N,4.55332,K,A*66
$GNZDA,104230,09,06,2012,-04,00*75
$GNRMC,104230,A,5957.01117,N,03023.16233,E,2.48078,188.50298,090612,,,A*6F
$GNGLL,5957.01117,N,03023.16233,E,104230,A,A*52
$GNVTG,188.50298,T,,,2.48078,N,4.5944,K,A*60
$GNZDA,104231,09,06,2012,-04,00*74
$GNRMC,104231,A,5957.0105,N,03023.162,E,2.31318,189.0656,090612,,,A*65
$GNGLL,5957.0105,N,03023.162,E,104231,A,A*61
$GNVTG,189.0656,T,,,2.31318,N,4.28401,K,A*6A
$GNZDA,104232,09,06,2012,-04,00*77
$GNRMC,104232,A,5957.00983,N,03023.16217,E,2.43609,180.13971,090612,,,A*67
$GNGLL,5957.00983,N,03023.16217,E,104232,A,A*52
$GNVTG,180.13971,T,,,2.43609,N,4.51164,K,A*53
$GNZDA,104233,09,06,2012,-04,00*76
$GNRMC,104233,A,5957.009,N,03023.162,E,2.4706,186.71869,090612,,,A*5C
$GNGLL,5957.009,N,03023.162,E,104233,A,A*5E
$GNVTG,186.71869,T,,,2.4706,N,4.57556,K,A*67
$GNZDA,104234,09,06,2012,-04,00*71
$GNRMC,104234,A,5957.00833,N,03023.16183,E,2.39225,182.14288,090612,,,A*6A
$GNGLL,5957.00833,N,03023.16183,E,104234,A,A*50
$GNVTG,182.14288,T,,,2.39225,N,4.43045,K,A*5D
$GNZDA,104235,09,06,2012,-04,00*70
$GNRMC,104235,A,5957.00767,N,03023.16183,E,2.44005,180.15966,090612,,,A*67
$GNGLL,5957.00767,N,03023.16183,E,104235,A,A*5F
$GNVTG,180.15966,T,,,2.44005,N,4.51897,K,A*5B
$GNZDA,104236,09,06,2012,-04,00*73
$GNRMC,104236,A,5957.00717,N,03023.16183,E,2.37055,181.56122,090612,,,A*6C
$GNGLL,5957.00717,N,03023.16183,E,104236,A,A*5B
$GNVTG,181.56122,T,,,2.37055,N,4.39026,K,A*58
$GNZDA,104237,09,06,2012,-04,00*72
$GNRMC,104237,A,5957.0065,N,03023.16167,E,2.41002,185.09187,090612,,,A*57
$GNGLL,5957.0065,N,03023.16167,E,104237,A,A*62
$GNVTG,185.09187,T,,,2.41002,N,4.46335,K,A*53
$GNZDA,104238,09,06,2012,-04,00*7D
$GNRMC,104238,A,5957.00567,N,03023.16167,E,2.50326,183.43797,090612,,,A*65
$GNGLL,5957.00567,N,03023.16167,E,104238,A,A*5A
$GNVTG,183.43797,T,,,2.50326,N,4.63604,K,A*59
$GNZDA,104239,09,06,2012,-04,00*7C
$GNRMC,104239,A,5957.005,N,03023.1615,E,2.458,182.87522,090612,,,A*5F
$GNGLL,5957.005,N,03023.1615,E,104239,A,A*6E
$GNVTG,182.87522,T,,,2.458,N,4.55222,K,A*52
$GNZDA,104240,09,06,2012,-04,00*72
$GNDTM,W84,,,,,,,*0F
$GNRMC,104240,A,5957.00433,N,03023.16117,E,2.50459,183.816,090612,,,A*63
$GNGLL,5957.00433,N,03023.16117,E,104240,A,A*52
$GNVTG,183.816,T,,,2.50459,N,4.6385,K,A*68
$GNZDA,104241,09,06,2012,-04,00*73
$GNRMC,104241,A,5957.0035,N,03023.16083,E,2.57922,186.73034,090612,,,A*53
$GNGLL,5957.0035,N,03023.16083,E,104241,A,A*6D
$GNVTG,186.73034,T,,,2.57922,N,4.77671,K,A*5F
$GNZDA,104242,09,06,2012,-04,00*70
$GNRMC,104242,A,5957.00283,N,03023.16083,E,2.6033,184.14043,090612,,,A*51
$GNGLL,5957.00283,N,03023.16083,E,104242,A,A*51
$GNVTG,184.14043,T,,,2.6033,N,4.82131,K,A*68
$GNZDA,104243,09,06,2012,-04,00*71
$GNRMC,104243,A,5957.00217,N,03023.16067,E,2.4598,183.42334,090612,,,A*56
$GNGLL,5957.00217,N,03023.16067,E,104243,A,A*57
$GNVTG,183.42334,T,,,2.4598,N,4.55555,K,A*65
$GNZDA,104244,09,06,2012,-04,00*76
$GNRMC,104244,A,5957.0015,N,03023.16017,E,2.4609,183.0051,090612,,,A*5B
$GNGLL,5957.0015,N,03023.16017,E,104244,A,A*67
$GNVTG,183.0051,T,,,2.4609,N,4.55758,K,A*57
$GNZDA,104245,09,06,2012,-04,00*77
$GNRMC,104245,A,5957.00067,N,03023.15983,E,2.5173,182.66652,090612,,,A*57
$GNGLL,5957.00067,N,03023.15983,E,104245,A,A*54
$GNVTG,182.66652,T,,,2.5173,N,4.66205,K,A*65
$GNZDA,104246,09,06,2012,-04,00*74
$GNRMC,104246,A,5957,N,03023.15967,E,2.45891,187.47995,090612,,,A*72
$GNGLL,5957,N,03023.15967,E,104246,A,A*42
$GNVTG,187.47995,T,,,2.45891,N,4.5539,K,A*6B
$GNZDA,104247,09,06,2012,-04,00*75
$GNRMC,104247,A,5956.99933,N,03023.1595,E,2.54219,182.9604,090612,,,A*63
$GNGLL,5956.99933,N,03023.1595,E,104247,A,A*61
$GNVTG,182.9604,T,,,2.54219,N,4.70813,K,A*6E
$GNZDA,104248,09,06,2012,-04,00*7A
$GNRMC,104248,A,5956.99867,N,03023.15933,E,2.38202,183.36586,090612,,,A*6D
$GNGLL,5956.99867,N,03023.15933,E,104248,A,A*5B
$GNVTG,183.36586,T,,,2.38202,N,4.4115,K,A*66
$GNZDA,104249,09,06,2012,-04,00*7B
$GNRMC,104249,A,5956.99783,N,03023.15933,E,2.4613,181.96538,090612,,,A*5F
$GNGLL,5956.99783,N,03023.15933,E,104249,A,A*5F
$GNVTG,181.96538,T,,,2.4613,N,4.55833,K,A*69
$GNZDA,104250,09,06,2012,-04,00*73
$GNRMC,104250,A,5956.99733,N,03023.15917,E,2.41598,182.42973,090612,,,A*62
$GNGLL,5956.99733,N,03023.15917,E,104250,A,A*5A
$GNVTG,182.42973,T,,,2.41598,N,4.4744,K,A*6A
$GNZDA,104251,09,06,2012,-04,00*72
$GNRMC,104251,A,5956.9965,N,03023.15917,E,2.57351,182.1582,090612,,,A*66
$GNGLL,5956.9965,N,03023.15917,E,104251,A,A*6F
$GNVTG,182.1582,T,,,2.57351,N,4.76615,K,A*6B
$GNZDA,104252,09,06,2012,-04,00*71
$GNRMC,104252,A,5956.996,N,03023.15917,E,2.41469,180.50178,090612,,,A*6C
$GNGLL,5956.996,N,03023.15917,E,104252,A,A*59
$GNVTG,180.50178,T,,,2.41469,N,4.472,K,A*55
$GNZDA,104253,09,06,2012,-04,00*70
$GNRMC,104253,A,5956.99517,N,03023.15917,E,2.57697,181.37047,090612,,,A*61
$GNGLL,5956.99517,N,03023.15917,E,104253,A,A*5D
$GNVTG,181.37047,T,,,2.57697,N,4.77255,K,A*5F
$GNZDA,104254,09,06,2012,-04,00*77
$GNRMC,104254,A,5956.9945,N,03023.15917,E,2.38961,181.09283,090612,,,A*5C
$GNGLL,5956.9945,N,03023.15917,E,104254,A,A*68
$GNVTG,181.09283,T,,,2.38961,N,4.42556,K,A*55
$GNZDA,104255,09,06,2012,-04,00*76
$GNRMC,104255,A,5956.99383,N,03023.15917,E,2.48073,180.4103,090612,,,A*5E
$GNGLL,5956.99383,N,03023.15917,E,104255,A,A*50
$GNVTG,180.4103,T,,,2.48073,N,4.59431,K,A*65
$GNZDA,104256,09,06,2012,-04,00*75
$GNRMC,104256,A,5956.99317,N,03023.159,E,2.44836,182.78186,090612,,,A*67
$GNGLL,5956.99317,N,03023.159,E,104256,A,A*58
$GNVTG,182.78186,T,,,2.44836,N,4.53436,K,A*59
$GNZDA,104257,09,06,2012,-04,00*74
$GNRMC,104257,A,5956.99233,N,03023.159,E,2.50748,182.48955,090612,,,A*67
$GNGLL,5956.99233,N,03023.159,E,104257,A,A*5E
$GNVTG,182.48955,T,,,2.50748,N,4.64384,K,A*55
$GNZDA,104258,09,06,2012,-04,00*7B
$GNRMC,104258,A,5956.99167,N,03023.15883,E,2.51844,182.17398,090612,,,A*63
$GNGLL,5956.99167,N,03023.15883,E,104258,A,A*59
$GNVTG,182.17398,T,,,2.51844,N,4.66415,K,A*5B
$GNZDA,104259,09,06,2012,-04,00*7A
$GNRMC,104259,A,5956.991,N,03023.15883,E,2.47182,183.65796,090612,,,A*69
$GNGLL,5956.991,N,03023.15883,E,104259,A,A*59
$GNVTG,183.65796,T,,,2.47182,N,4.5778,K,A*6C
$GNZDA,104300,09,06,2012,-04,00*77
$GNRMC,104300,A,5956.99033,N,03023.15883,E,2.42676,182.50262,090612,,,A*65
$GNGLL,5956.99033,N,03023.15883,E,104300,A,A*55
$GNVTG,182.50262,T,,,2.42676,N,4.49436,K,A*5D
$GNZDA,104301,09,06,2012,-04,00*76
$GNRMC,104301,A,5956.98967,N,03023.15883,E,2.41482,184.28474,090612,,,A*6F
$GNGLL,5956.98967,N,03023.15883,E,104301,A,A*5D
$GNVTG,184.28474,T,,,2.41482,N,4.47225,K,A*55
$GNZDA,104302,09,06,2012,-04,00*75
$GNRMC,104302,A,5956.98883,N,03023.15883,E,2.60409,179.91871,090612,,,A*6E
$GNGLL,5956.98883,N,03023.15883,E,104302,A,A*55
$GNVTG,179.91871,T,,,2.60409,N,4.82277,K,A*52
$GNZDA,104303,09,06,2012,-04,00*74
$GNRMC,104303,A,5956.98817,N,03023.15867,E,2.35399,182.99087,090612,,,A*6B
$GNGLL,5956.98817,N,03023.15867,E,104303,A,A*53
$GNVTG,182.99087,T,,,2.35399,N,4.35959,K,A*5A
$GNZDA,104304,09,06,2012,-04,00*73
$GNRMC,104304,A,5956.9875,N,03023.15867,E,2.47971,179.79975,090612,,,A*57
$GNGLL,5956.9875,N,03023.15867,E,104304,A,A*68
$GNVTG,179.79975,T,,,2.47971,N,4.59243,K,A*57
$GNZDA,104305,09,06,2012,-04,00*72
$GNRMC,104305,A,5956.98667,N,03023.15883,E,2.49156,180.61885,090612,,,A*6B
$GNGLL,5956.98667,N,03023.15883,E,104305,A,A*56
$GNVTG,180.61885,T,,,2.49156,N,4.61436,K,A*5A
$GNZDA,104306,09,06,2012,-04,00*71
$GNRMC,104306,A,5956.98583,N,03023.15883,E,2.53009,180.60927,090612,,,A*69
$GNGLL,5956.98583,N,03023.15883,E,104306,A,A*5C
$GNVTG,180.60927,T,,,2.53009,N,4.68572,K,A*5A
$GNZDA,104307,09,06,2012,-04,00*70
$GNRMC,104307,A,5956.98517,N,03023.15867,E,2.6109,181.54944,090612,,,A*5D
$GNGLL,5956.98517,N,03023.15867,E,104307,A,A*5A
$GNVTG,181.54944,T,,,2.6109,N,4.83539,K,A*62
$GNZDA,104308,09,06,2012,-04,00*7F
$GNRMC,104308,A,5956.98433,N,03023.1585,E,2.60206,182.8709,090612,,,A*60
$GNGLL,5956.98433,N,03023.1585,E,104308,A,A*66
$GNVTG,182.8709,T,,,2.60206,N,4.81902,K,A*65
$GNZDA,104309,09,06,2012,-04,00*7E
$GNRMC,104309,A,5956.98383,N,03023.15883,E,2.57456,181.22398,090612,,,A*63
$GNGLL,5956.98383,N,03023.15883,E,104309,A,A*55
$GNVTG,181.22398,T,,,2.57456,N,4.76808,K,A*56
$GNZDA,104310,09,06,2012,-04,00*76
$GNDTM,W84,,,,,,,*0F
$GNRMC,104310,A,5956.983,N,03023.15883,E,2.57223,182.33158,090612,,,A*69
$GNGLL,5956.983,N,03023.15883,E,104310,A,A*56
$GNVTG,182.33158,T,,,2.57223,N,4.76376,K,A*5D
$GNZDA,104311,09,06,2012,-04,00*77
$GNRMC,104311,A,5956.98217,N,03023.15867,E,2.52585,183.89984,090612,,,A*62
$GNGLL,5956.98217,N,03023.15867,E,104311,A,A*5A
$GNVTG,183.89984,T,,,2.52585,N,4.67787,K,A*50
$GNZDA,104312,09,06,2012,-04,00*74
$GNRMC,104312,A,5956.98133,N,03023.15867,E,2.65428,181.29276,090612,,,A*68
$GNGLL,5956.98133,N,03023.15867,E,104312,A,A*5C
$GNVTG,181.29276,T,,,2.65428,N,4.91573,K,A*5C
$GNZDA,104313,09,06,2012,-04,00*75
$GNRMC,104313,A,5956.98067,N,03023.15833,E,2.45648,183.91687,090612,,,A*65
$GNGLL,5956.98067,N,03023.15833,E,104313,A,A*5C
$GNVTG,183.91687,T,,,2.45648,N,4.54939,K,A*5A
$GNZDA,104314,09,06,2012,-04,00*72
$GNRMC,104314,A,5956.98,N,03023.15833,E,2.54809,183.52879,090612,,,A*58
$GNGLL,5956.98,N,03023.15833,E,104314,A,A*6A
$GNVTG,183.52879,T,,,2.54809,N,4.71906,K,A*5A
$GNZDA,104315,09,06,2012,-04,00*73
$GNRMC,104315,A,5956.97917,N,03023.15817,E,2.65041,182.5346,090612,,,A*5D
$GNGLL,5956.97917,N,03023.15817,E,104315,A,A*5D
$GNVTG,182.5346,T,,,2.65041,N,4.90855,K,A*60
$GNZDA,104316,09,06,2012,-04,00*70
$GNRMC,104316,A,5956.9785,N,03023.158,E,2.60231,184.81338,090612,,,A*59
$GNGLL,5956.9785,N,03023.158,E,104316,A,A*6A
$GNVTG,184.81338,T,,,2.60231,N,4.81949,K,A*5F
$GNZDA,104317,09,06,2012,-04,00*71
$GNRMC,104317,A,5956.978,N,03023.158,E,2.52474,182.51901,090612,,,A*60
$GNGLL,5956.978,N,03023.158,E,104317,A,A*5E
$GNVTG,182.51901,T,,,2.52474,N,4.67582,K,A*51
$GNZDA,104318,09,06,2012,-04,00*7E
$GNRMC,104318,A,5956.97733,N,03023.158,E,2.61149,181.25504,090612,,,A*62
$GNGLL,5956.97733,N,03023.158,E,104318,A,A*5E
$GNVTG,181.25504,T,,,2.61149,N,4.83648,K,A*5C
$GNZDA,104319,09,06,2012,-04,00*7F
$GNRMC,104319,A,5956.97667,N,03023.158,E,2.60871,182.29148,090612,,,A*63
$GNGLL,5956.97667,N,03023.158,E,104319,A,A*5F
$GNVTG,182.29148,T,,,2.60871,N,4.83134,K,A*50
$GNZDA,104320,09,06,2012,-04,00*75
$GNRMC,104320,A,5956.976,N,03023.158,E,2.45812,181.91627,090612,,,A*64
$GNGLL,5956.976,N,03023.158,E,104320,A,A*54
$GNVTG,181.91627,T,,,2.45812,N,4.55244,K,A*53
$GNZDA,104321,09,06,2012,-04,00*74
$GNRMC,104321,A,5956.97517,N,03023.15783,E,2.47152,182.28189,090612,,,A*69
$GNGLL,5956.97517,N,03023.15783,E,104321,A,A*54
$GNVTG,182.28189,T,,,2.47152,N,4.57726,K,A*5D
$GNZDA,104322,09,06,2012,-04,00*77
$GNRMC,104322,A,5956.9745,N,03023.158,E,2.64967,182.27228,090612,,,A*54
$GNGLL,5956.9745,N,03023.158,E,104322,A,A*61
$GNVTG,182.27228,T,,,2.64967,N,4.90719,K,A*52
$GNZDA,104323,09,06,2012,-04,00*76
$GNRMC,104323,A,5956.97383,N,03023.15783,E,2.64715,181.96736,090612,,,A*60
$GNGLL,5956.97383,N,03023.15783,E,104323,A,A*5D
$GNVTG,181.96736,T,,,2.64715,N,4.90253,K,A*51
$GNZDA,104324,09,06,2012,-04,00*71
$GNRMC,104324,A,5956.97317,N,03023.15817,E,2.76468,176.60334,090612,,,A*65
$GNGLL,5956.97317,N,03023.15817,E,104324,A,A*55
$GNVTG,176.60334,T,,,2.76468,N,5.1202,K,A*61
$GNZDA,104325,09,06,2012,-04,00*70
$GNRMC,104325,A,5956.97233,N,03023.15817,E,2.56882,178.21715,090612,,,A*65
$GNGLL,5956.97233,N,03023.15817,E,104325,A,A*53
$GNVTG,178.21715,T,,,2.56882,N,4.75746,K,A*50
$GNZDA,104326,09,06,2012,-04,00*73
$GNRMC,104326,A,5956.97167,N,03023.158,E,2.62365,180.3239,090612,,,A*5B
$GNGLL,5956.97167,N,03023.158,E,104326,A,A*54
$GNVTG,180.3239,T,,,2.62365,N,4.85899,K,A*6B
$GNZDA,104327,09,06,2012,-04,00*72
$GNRMC,104327,A,5956.97017,N,03023.15933,E,5.67742,152.423,090612,,,A*6F
$GNGLL,5956.97017,N,03023.15933,E,104327,A,A*52
$GNVTG,152.423,T,,,5.67742,N,10.51458,K,A*64
$GNZDA,104328,09,06,2012,-04,00*7D
$GNRMC,104328,A,5956.969,N,03023.16167,E,6.36413,134.3737,090612,,,A*51
$GNGLL,5956.969,N,03023.16167,E,104328,A,A*59
$GNVTG,134.3737,T,,,6.36413,N,11.78636,K,A*51
$GNZDA,104329,09,06,2012,-04,00*7C
$GNRMC,104329,A,5956.96783,N,03023.164,E,6.52504,133.40858,090612,,,A*62
$GNGLL,5956.96783,N,03023.164,E,104329,A,A*59
$GNVTG,133.40858,T,,,6.52504,N,12.08438,K,A*6A
$GNZDA,104330,09,06,2012,-04,00*74
$GNRMC,104330,A,5956.967,N,03023.1665,E,6.08852,124.84572,090612,,,A*5C
$GNGLL,5956.967,N,03023.1665,E,104330,A,A*6D
$GNVTG,124.84572,T,,,6.08852,N,11.27593,K,A*6E
$GNZDA,104331,09,06,2012,-04,00*75
$GNRMC,104331,A,5956.96583,N,03023.16883,E,6.30241,134.20859,090612,,,A*6C
$GNGLL,5956.96583,N,03023.16883,E,104331,A,A*55
$GNVTG,134.20859,T,,,6.30241,N,11.67206,K,A*69
$GNZDA,104332,09,06,2012,-04,00*76
$GNRMC,104332,A,5956.96533,N,03023.1685,E,2.57999,180.64372,090612,,,A*5C
$GNGLL,5956.96533,N,03023.1685,E,104332,A,A*63
$GNVTG,180.64372,T,,,2.57999,N,4.77815,K,A*52
$GNZDA,104333,09,06,2012,-04,00*77
$GNRMC,104333,A,5956.96467,N,03023.16817,E,2.57192,185.16637,090612,,,A*69
$GNGLL,5956.96467,N,03023.16817,E,104333,A,A*51
$GNVTG,185.16637,T,,,2.57192,N,4.76319,K,A*53
$GNZDA,104334,09,06,2012,-04,00*70
$GNRMC,104334,A,5956.96417,N,03023.16783,E,2.60298,185.28796,090612,,,A*61
$GNGLL,5956.96417,N,03023.16783,E,104334,A,A*53
$GNVTG,185.28796,T,,,2.60298,N,4.82071,K,A*5F
$GNZDA,104335,09,06,2012,-04,00*71
$GNRMC,104335,A,5956.9635,N,03023.1675,E,2.45065,183.82059,090612,,,A*6F
$GNGLL,5956.9635,N,03023.1675,E,104335,A,A*58
$GNVTG,183.82059,T,,,2.45065,N,4.53861,K,A*5F
$GNZDA,104336,09,06,2012,-04,00*72
$GNRMC,104336,A,5956.96283,N,03023.16717,E,2.69396,182.72013,090612,,,A*61
$GNGLL,5956.96283,N,03023.16717,E,104336,A,A*57
$GNVTG,182.72013,T,,,2.69396,N,4.98921,K,A*5C
$GNZDA,104337,09,06,2012,-04,00*73
$GNRMC,104337,A,5956.96217,N,03023.16633,E,2.53478,184.8891,090612,,,A*5D
$GNGLL,5956.96217,N,03023.16633,E,104337,A,A*5C
$GNVTG,184.8891,T,,,2.53478,N,4.69441,K,A*6E
$GNZDA,104338,09,06,2012,-04,00*7C
$GNRMC,104338,A,5956.9615,N,03023.166,E,2.6082,182.68382,090612,,,A*6A
$GNGLL,5956.9615,N,03023.166,E,104338,A,A*63
$GNVTG,182.68382,T,,,2.6082,N,4.83038,K,A*68
$GNZDA,104339,09,06,2012,-04,00*7D
$GNRMC,104339,A,5956.96083,N,03023.1655,E,2.52171,184.0386,090612,,,A*62
$GNGLL,5956.96083,N,03023.1655,E,104339,A,A*6B
$GNVTG,184.0386,T,,,2.52171,N,4.67021,K,A*6A
$GNZDA,104340,09,06,2012,-04,00*73
$GNDTM,W84,,,,,,,*0F
$GNRMC,104340,A,5956.96017,N,03023.16517,E,2.26918,185.98253,090612,,,A*6F
$GNGLL,5956.96017,N,03023.16517,E,104340,A,A*5B
$GNVTG,185.98253,T,,,2.26918,N,4.20252,K,A*52
$GNZDA,104341,09,06,2012,-04,00*72
$GNRMC,104341,A,5956.95933,N,03023.16483,E,2.71848,180.95331,090612,,,A*65
$GNGLL,5956.95933,N,03023.16483,E,104341,A,A*5A
$GNVTG,180.95331,T,,,2.71848,N,5.03462,K,A*5C
$GNZDA,104342,09,06,2012,-04,00*71
$GNRMC,104342,A,5956.95867,N,03023.16417,E,2.44197,183.4314,090612,,,A*5A
$GNGLL,5956.95867,N,03023.16417,E,104342,A,A*54
$GNVTG,183.4314,T,,,2.44197,N,4.52253,K,A*6C
$GNZDA,104343,09,06,2012,-04,00*70
$GNRMC,104343,A,5956.95783,N,03023.16383,E,2.71394,179.09705,090612,,,A*6F
$GNGLL,5956.95783,N,03023.16383,E,104343,A,A*5A
$GNVTG,179.09705,T,,,2.71394,N,5.02621,K,A*52
$GNZDA,104344,09,06,2012,-04,00*77
$GNRMC,104344,A,5956.95733,N,03023.16333,E,2.20862,190.24043,090612,,,A*63
$GNGLL,5956.95733,N,03023.16333,E,104344,A,A*5D
$GNVTG,190.24043,T,,,2.20862,N,4.09035,K,A*50
$GNZDA,104345,09,06,2012,-04,00*76
$GNRMC,104345,A,5956.95667,N,03023.163,E,2.61531,183.10008,090612,,,A*66
$GNGLL,5956.95667,N,03023.163,E,104345,A,A*5C
$GNVTG,183.10008,T,,,2.61531,N,4.84355,K,A*54
$GNZDA,104346,09,06,2012,-04,00*75
$GNRMC,104346,A,5956.956,N,03023.16267,E,2.68433,179.70293,090612,,,A*6D
$GNGLL,5956.956,N,03023.16267,E,104346,A,A*5E
$GNVTG,179.70293,T,,,2.68433,N,4.97138,K,A*56
$GNZDA,104347,09,06,2012,-04,00*74
$GNRMC,104347,A,5956.95517,N,03023.16233,E,2.68659,181.65951,090612,,,A*60
$GNGLL,5956.95517,N,03023.16233,E,104347,A,A*5B
$GNVTG,181.65951,T,,,2.68659,N,4.97556,K,A*52
$GNZDA,104348,09,06,2012,-04,00*7B
$GNRMC,104348,A,5956.9545,N,03023.162,E,2.69775,180.43757,090612,,,A*5E
$GNGLL,5956.9545,N,03023.162,E,104348,A,A*66
$GNVTG,180.43757,T,,,2.69775,N,4.99624,K,A*59
$GNZDA,104349,09,06,2012,-04,00*7A
$GNRMC,104349,A,5956.95383,N,03023.16167,E,2.64952,178.43871,090612,,,A*6E
$GNGLL,5956.95383,N,03023.16167,E,104349,A,A*5C
$GNVTG,178.43871,T,,,2.64952,N,4.90692,K,A*57
$GNZDA,104350,09,06,2012,-04,00*72
$GNRMC,104350,A,5956.953,N,03023.1615,E,2.6594,180.41162,090612,,,A*65
$GNGLL,5956.953,N,03023.1615,E,104350,A,A*6B
$GNVTG,180.41162,T,,,2.6594,N,4.92522,K,A*61
$GNZDA,104351,09,06,2012,-04,00*73
$GNRMC,104351,A,5956.95233,N,03023.16117,E,2.63871,177.33245,090612,,,A*68
$GNGLL,5956.95233,N,03023.16117,E,104351,A,A*58
$GNVTG,177.33245,T,,,2.63871,N,4.88688,K,A*57
$GNZDA,104352,09,06,2012,-04,00*70
$GNRMC,104352,A,5956.9515,N,03023.16083,E,2.82343,178.02621,090612,,,A*5F
$GNGLL,5956.9515,N,03023.16083,E,104352,A,A*61
$GNVTG,178.02621,T,,,2.82343,N,5.229,K,A*57
$GNZDA,104353,09,06,2012,-04,00*71
$GNRMC,104353,A,5956.95083,N,03023.16067,E,2.57401,177.98969,090612,,,A*6D
$GNGLL,5956.95083,N,03023.16067,E,104353,A,A*55
$GNVTG,177.98969,T,,,2.57401,N,4.76707,K,A*58
$GNZDA,104354,09,06,2012,-04,00*76
$GNRMC,104354,A,5956.95017,N,03023.16017,E,2.62471,179.73099,090612,,,A*6C
$GNGLL,5956.95017,N,03023.16017,E,104354,A,A*58
$GNVTG,179.73099,T,,,2.62471,N,4.86097,K,A*55
$GNZDA,104355,09,06,2012,-04,00*77
$GNRMC,104355,A,5956.9495,N,03023.15983,E,2.64248,181.19236,090612,,,A*57
$GNGLL,5956.9495,N,03023.15983,E,104355,A,A*65
$GNVTG,181.19236,T,,,2.64248,N,4.89388,K,A*51
$GNZDA,104356,09,06,2012,-04,00*74
$GNRMC,104356,A,5956.949,N,03023.15967,E,2.58464,181.36005,090612,,,A*63
$GNGLL,5956.949,N,03023.15967,E,104356,A,A*59
$GNVTG,181.36005,T,,,2.58464,N,4.78675,K,A*50
$GNZDA,104357,09,06,2012,-04,00*75
$GNRMC,104357,A,5956.94833,N,03023.1595,E,2.68748,183.09135,090612,,,A*55
$GNGLL,5956.94833,N,03023.1595,E,104357,A,A*6D
$GNVTG,183.09135,T,,,2.68748,N,4.97721,K,A*53
$GNZDA,104358,09,06,2012,-04,00*7A
$GNRMC,104358,A,5956.94767,N,03023.15917,E,2.53,184.56043,090612,,,A*59
$GNGLL,5956.94767,N,03023.15917,E,104358,A,A*5F
$GNVTG,184.56043,T,,,2.53,N,4.68555,K,A*6C
$GNZDA,104359,09,06,2012,-04,00*7B
$GNRMC,104359,A,5956.94717,N,03023.159,E,2.50772,182.34602,090612,,,A*69
$GNGLL,5956.94717,N,03023.159,E,104359,A,A*5F
$GNVTG,182.34602,T,,,2.50772,N,4.64429,K,A*5A
$GNZDA,104400,09,06,2012,-04,00*70
$GNRMC,104400,A,5956.9465,N,03023.15883,E,2.52355,182.95948,090612,,,A*53
$GNGLL,5956.9465,N,03023.15883,E,104400,A,A*6C
$GNVTG,182.95948,T,,,2.52355,N,4.67362,K,A*58
$GNZDA,104401,09,06,2012,-04,00*71
$GNRMC,104401,A,5956.94583,N,03023.1585,E,2.4967,181.52462,090612,,,A*64
$GNGLL,5956.94583,N,03023.1585,E,104401,A,A*6E
$GNVTG,181.52462,T,,,2.4967,N,4.62388,K,A*6C
$GNZDA,104402,09,06,2012,-04,00*72
$GNRMC,104402,A,5956.94517,N,03023.15817,E,2.47134,182.75471,090612,,,A*64
$GNGLL,5956.94517,N,03023.15817,E,104402,A,A*53
$GNVTG,182.75471,T,,,2.47134,N,4.57692,K,A*59
$GNZDA,104403,09,06,2012,-04,00*73
$GNRMC,104403,A,5956.94433,N,03023.15783,E,2.50232,183.99866,090612,,,A*6A
$GNGLL,5956.94433,N,03023.15783,E,104403,A,A*57
$GNVTG,183.99866,T,,,2.50232,N,4.6343,K,A*6E
$GNZDA,104404,09,06,2012,-04,00*74
$GNRMC,104404,A,5956.94367,N,03023.15783,E,2.51898,182.22446,090612,,,A*6F
$GNGLL,5956.94367,N,03023.15783,E,104404,A,A*56
$GNVTG,182.22446,T,,,2.51898,N,4.66515,K,A*59
$GNZDA,104405,09,06,2012,-04,00*75
$GNRMC,104405,A,5956.943,N,03023.15767,E,2.64364,179.18763,090612,,,A*62
$GNGLL,5956.943,N,03023.15767,E,104405,A,A*5C
$GNVTG,179.18763,T,,,2.64364,N,4.89601,K,A*59
$GNZDA,104406,09,06,2012,-04,00*76
$GNRMC,104406,A,5956.94233,N,03023.15767,E,2.64284,179.41517,090612,,,A*62
$GNGLL,5956.94233,N,03023.15767,E,104406,A,A*5E
$GNVTG,179.41517,T,,,2.64284,N,4.89455,K,A*58
$GNZDA,104407,09,06,2012,-04,00*77
$GNRMC,104407,A,5956.94167,N,03023.1575,E,2.54092,180.2063,090612,,,A*64
$GNGLL,5956.94167,N,03023.1575,E,104407,A,A*69
$GNVTG,180.2063,T,,,2.54092,N,4.70579,K,A*60
$GNZDA,104408,09,06,2012,-04,00*78
$GNRMC,104408,A,5956.941,N,03023.15733,E,2.54312,182.57105,090612,,,A*67
$GNGLL,5956.941,N,03023.15733,E,104408,A,A*52
$GNVTG,182.57105,T,,,2.54312,N,4.70986,K,A*54
$GNZDA,104409,09,06,2012,-04,00*79
$GNRMC,104409,A,5956.94033,N,03023.15733,E,2.53617,181.60009,090612,,,A*6A
$GNGLL,5956.94033,N,03023.15733,E,104409,A,A*52
$GNVTG,181.60009,T,,,2.53617,N,4.69698,K,A*51
$GNZDA,104410,09,06,2012,-04,00*71
$GNDTM,W84,,,,,,,*0F
$GNRMC,104410,A,5956.93967,N,03023.15733,E,2.58028,182.23147,090612,,,A*63
$GNGLL,5956.93967,N,03023.15733,E,104410,A,A*55
$GNVTG,182.23147,T,,,2.58028,N,4.77868,K,A*51
$GNZDA,104411,09,06,2012,-04,00*70
$GNRMC,104411,A,5956.939,N,03023.15733,E,2.47506,180.99767,090612,,,A*63
$GNGLL,5956.939,N,03023.15733,E,104411,A,A*55
$GNVTG,180.99767,T,,,2.47506,N,4.58381,K,A*50
$GNZDA,104412,09,06,2012,-04,00*73
$GNRMC,104412,A,5956.93833,N,03023.15733,E,2.59201,180.21252,090612,,,A*6E
$GNGLL,5956.93833,N,03023.15733,E,104412,A,A*57
$GNVTG,180.21252,T,,,2.59201,N,4.8004,K,A*64
$GNZDA,104413,09,06,2012,-04,00*72
$GNRMC,104413,A,5956.93767,N,03023.15733,E,2.47279,181.08687,090612,,,A*67
$GNGLL,5956.93767,N,03023.15733,E,104413,A,A*58
$GNVTG,181.08687,T,,,2.47279,N,4.57962,K,A*51
$GNZDA,104414,09,06,2012,-04,00*75
$GNRMC,104414,A,5956.937,N,03023.15717,E,2.55016,181.47185,090612,,,A*61
$GNGLL,5956.937,N,03023.15717,E,104414,A,A*58
$GNVTG,181.47185,T,,,2.55016,N,4.7229,K,A*66
$GNZDA,104415,09,06,2012,-04,00*74
$GNRMC,104415,A,5956.93633,N,03023.157,E,2.5152,181.45872,090612,,,A*50
$GNGLL,5956.93633,N,03023.157,E,104415,A,A*5E
$GNVTG,181.45872,T,,,2.5152,N,4.65815,K,A*60
$GNZDA,104416,09,06,2012,-04,00*77
$GNRMC,104416,A,5956.93567,N,03023.15683,E,2.49617,181.67491,090612,,,A*64
$GNGLL,5956.93567,N,03023.15683,E,104416,A,A*55
$GNVTG,181.67491,T,,,2.49617,N,4.62291,K,A*5E
$GNZDA,104417,09,06,2012,-04,00*76
$GNRMC,104417,A,5956.93483,N,03023.15667,E,2.47629,181.05649,090612,,,A*64
$GNGLL,5956.93483,N,03023.15667,E,104417,A,A*55
$GNVTG,181.05649,T,,,2.47629,N,4.58609,K,A*52
$GNZDA,104418,09,06,2012,-04,00*79
$GNRMC,104418,A,5956.93417,N,03023.15667,E,2.52335,180.34405,090612,,,A*63
$GNGLL,5956.93417,N,03023.15667,E,104418,A,A*57
$GNVTG,180.34405,T,,,2.52335,N,4.67324,K,A*51
$GNZDA,104419,09,06,2012,-04,00*78
$GNRMC,104419,A,5956.9335,N,03023.15667,E,2.52116,180.80056,090612,,,A*58
$GNGLL,5956.9335,N,03023.15667,E,104419,A,A*62
$GNVTG,180.80056,T,,,2.52116,N,4.66919,K,A*5A
$GNZDA,104420,09,06,2012,-04,00*72
$GNRMC,104420,A,5956.93267,N,03023.15667,E,2.49669,179.20921,090612,,,A*67
$GNGLL,5956.93267,N,03023.15667,E,104420,A,A*5D
$GNVTG,179.20921,T,,,2.49669,N,4.62388,K,A*5C
$GNZDA,104421,09,06,2012,-04,00*73
$GNRMC,104421,A,5956.932,N,03023.15667,E,2.49166,180.10888,090612,,,A*68
$GNGLL,5956.932,N,03023.15667,E,104421,A,A*5D
$GNVTG,180.10888,T,,,2.49166,N,4.61455,K,A*57
$GNZDA,104422,09,06,2012,-04,00*70
$GNRMC,104422,A,5956.93133,N,03023.15667,E,2.54376,181.87,090612,,,A*50
$GNGLL,5956.93133,N,03023.15667,E,104422,A,A*5D
$GNVTG,181.87,T,,,2.54376,N,4.71104,K,A*6F
$GNZDA,104423,09,06,2012,-04,00*71
$GNRMC,104423,A,5956.93067,N,03023.15667,E,2.5042,181.16,090612,,,A*69
$GNGLL,5956.93067,N,03023.15667,E,104423,A,A*5C
$GNVTG,181.16,T,,,2.5042,N,4.63778,K,A*59
$GNZDA,104424,09,06,2012,-04,00*76
$GNRMC,104424,A,5956.93,N,03023.15667,E,2.50206,181.58321,090612,,,A*57
$GNGLL,5956.93,N,03023.15667,E,104424,A,A*6A
$GNVTG,181.58321,T,,,2.50206,N,4.63381,K,A*53
$GNZDA,104425,09,06,2012,-04,00*77
$GNRMC,104425,A,5956.92933,N,03023.1565,E,2.43878,184.9499,090612,,,A*6E
$GNGLL,5956.92933,N,03023.1565,E,104425,A,A*67
$GNVTG,184.9499,T,,,2.43878,N,4.51662,K,A*6E
$GNZDA,104426,09,06,2012,-04,00*74
$GNRMC,104426,A,5956.92867,N,03023.15617,E,2.49851,186.25123,090612,,,A*67
$GNGLL,5956.92867,N,03023.15617,E,104426,A,A*57
$GNVTG,186.25123,T,,,2.49851,N,4.62725,K,A*55
$GNZDA,104427,09,06,2012,-04,00*75
$GNRMC,104427,A,5956.928,N,03023.15617,E,2.55483,183.80713,090612,,,A*66
$GNGLL,5956.928,N,03023.15617,E,104427,A,A*57
$GNVTG,183.80713,T,,,2.55483,N,4.73155,K,A*55
$GNZDA,104428,09,06,2012,-04,00*7A
$GNRMC,104428,A,5956.92733,N,03023.156,E,2.51729,183.49172,090612,,,A*63
$GNGLL,5956.92733,N,03023.156,E,104428,A,A*51
$GNVTG,183.49172,T,,,2.51729,N,4.66202,K,A*53
$GNZDA,104429,09,06,2012,-04,00*7B
$GNRMC,104429,A,5956.92667,N,03023.156,E,2.41252,178.4874,090612,,,A*58
$GNGLL,5956.92667,N,03023.156,E,104429,A,A*50
$GNVTG,178.4874,T,,,2.41252,N,4.46798,K,A*6D
$GNZDA,104430,09,06,2012,-04,00*73
$GNRMC,104430,A,5956.926,N,03023.15617,E,2.43138,173.90366,090612,,,A*64
$GNGLL,5956.926,N,03023.15617,E,104430,A,A*5F
$GNVTG,173.90366,T,,,2.43138,N,4.50291,K,A*55
$GNZDA,104431,09,06,2012,-04,00*72
$GNRMC,104431,A,5956.9255,N,03023.15667,E,2.48756,165.97877,090612,,,A*5A
$GNGLL,5956.9255,N,03023.15667,E,104431,A,A*6F
$GNVTG,165.97877,T,,,2.48756,N,4.60696,K,A*5B
$GNZDA,104432,09,06,2012,-04,00*71
$GNRMC,104432,A,5956.92483,N,03023.15717,E,2.48382,156.64827,090612,,,A*64
$GNGLL,5956.92483,N,03023.15717,E,104432,A,A*55
$GNVTG,156.64827,T,,,2.48382,N,4.60004,K,A*52
$GNZDA,104433,09,06,2012,-04,00*70
$GNRMC,104433,A,5956.92433,N,03023.15817,E,2.53096,139.46713,090612,,,A*6C
$GNGLL,5956.92433,N,03023.15817,E,104433,A,A*50
$GNVTG,139.46713,T,,,2.53096,N,4.68734,K,A*53
$GNZDA,104434,09,06,2012,-04,00*77
$GNRMC,104434,A,5956.924,N,03023.15917,E,2.45803,127.41712,090612,,,A*60
$GNGLL,5956.924,N,03023.15917,E,104434,A,A*56
$GNVTG,127.41712,T,,,2.45803,N,4.55227,K,A*50
$GNZDA,104435,09,06,2012,-04,00*76
$GNRMC,104435,A,5956.92367,N,03023.16033,E,2.47882,114.73935,090612,,,A*6A
$GNGLL,5956.92367,N,03023.16033,E,104435,A,A*5D
$GNVTG,114.73935,T,,,2.47882,N,4.59078,K,A*55
$GNZDA,104436,09,06,2012,-04,00*75
$GNRMC,104436,A,5956.9235,N,03023.16167,E,2.57724,109.88546,090612,,,A*5F
$GNGLL,5956.9235,N,03023.16167,E,104436,A,A*6A
$GNVTG,109.88546,T,,,2.57724,N,4.77305,K,A*52
$GNZDA,104437,09,06,2012,-04,00*74
$GNRMC,104437,A,5956.92333,N,03023.163,E,2.54522,99.21932,090612,,,A*5B
$GNGLL,5956.92333,N,03023.163,E,104437,A,A*5D
$GNVTG,99.21932,T,,,2.54522,N,4.71374,K,A*61
$GNZDA,104438,09,06,2012,-04,00*7B
$GNRMC,104438,A,5956.92333,N,03023.16433,E,2.47958,95.04061,090612,,,A*54
$GNGLL,5956.92333,N,03023.16433,E,104438,A,A*55
$GNVTG,95.04061,T,,,2.47958,N,4.59219,K,A*66
$GNZDA,104439,09,06,2012,-04,00*7A
$GNRMC,104439,A,5956.92333,N,03023.166,E,2.6559,88.8345,090612,,,A*5A
$GNGLL,5956.92333,N,03023.166,E,104439,A,A*56
$GNVTG,88.8345,T,,,2.6559,N,4.91872,K,A*68
$GNZDA,104440,09,06,2012,-04,00*74
$GNDTM,W84,,,,,,,*0F
$GNRMC,104440,A,5956.92333,N,03023.16733,E,2.6635,88.94465,090612,,,A*6C
$GNGLL,5956.92333,N,03023.16733,E,104440,A,A*59
$GNVTG,88.94465,T,,,2.6635,N,4.93281,K,A*55
$GNZDA,104441,09,06,2012,-04,00*75
$GNRMC,104441,A,5956.92333,N,03023.16883,E,2.68665,91.73598,090612,,,A*56
$GNGLL,5956.92333,N,03023.16883,E,104441,A,A*5C
$GNVTG,91.73598,T,,,2.68665,N,4.97567,K,A*61
$GNZDA,104442,09,06,2012,-04,00*76
$GNRMC,104442,A,5956.92333,N,03023.17033,E,2.67148,89.923,090612,,,A*51
$GNGLL,5956.92333,N,03023.17033,E,104442,A,A*5D
$GNVTG,89.923,T,,,2.67148,N,4.94759,K,A*6B
$GNZDA,104443,09,06,2012,-04,00*77
$GNRMC,104443,A,5956.9235,N,03023.17217,E,2.61537,85.99571,090612,,,A*6C
$GNGLL,5956.9235,N,03023.17217,E,104443,A,A*6D
$GNVTG,85.99571,T,,,2.61537,N,4.84367,K,A*6E
$GNZDA,104444,09,06,2012,-04,00*70
$GNRMC,104444,A,5956.9235,N,03023.17383,E,2.61415,91.26581,090612,,,A*68
$GNGLL,5956.9235,N,03023.17383,E,104444,A,A*66
$GNVTG,91.26581,T,,,2.61415,N,4.84141,K,A*67
$GNZDA,104445,09,06,2012,-04,00*71
$GNRMC,104445,A,5956.9235,N,03023.17533,E,3.09623,83.78457,090612,,,A*6E
$GNGLL,5956.9235,N,03023.17533,E,104445,A,A*6A
$GNVTG,83.78457,T,,,3.09623,N,5.73421,K,A*67
$GNZDA,104446,09,06,2012,-04,00*72
$GNRMC,104446,A,5956.9235,N,03023.17683,E,2.7466,92.17916,090612,,,A*58
$GNGLL,5956.9235,N,03023.17683,E,104446,A,A*61
$GNVTG,92.17916,T,,,2.7466,N,5.08669,K,A*58
$GNZDA,104447,09,06,2012,-04,00*73
$GNRMC,104447,A,5956.92333,N,03023.17817,E,2.78315,92.50713,090612,,,A*5C
$GNGLL,5956.92333,N,03023.17817,E,104447,A,A*56
$GNVTG,92.50713,T,,,2.78315,N,5.15439,K,A*60
$GNZDA,104448,09,06,2012,-04,00*7C
$GNRMC,104448,A,5956.92333,N,03023.17967,E,2.76976,92.31142,090612,,,A*51
$GNGLL,5956.92333,N,03023.17967,E,104448,A,A*5F
$GNVTG,92.31142,T,,,2.76976,N,5.1296,K,A*52
$GNZDA,104449,09,06,2012,-04,00*7D
$GNRMC,104449,A,5956.92333,N,03023.181,E,2.68269,91.36797,090612,,,A*56
$GNGLL,5956.92333,N,03023.181,E,104449,A,A*58
$GNVTG,91.36797,T,,,2.68269,N,4.96834,K,A*6F
$GNZDA,104450,09,06,2012,-04,00*75
$GNRMC,104450,A,5956.92317,N,03023.18233,E,2.63705,92.6121,090612,,,A*64
$GNGLL,5956.92317,N,03023.18233,E,104450,A,A*55
$GNVTG,92.6121,T,,,2.63705,N,4.88381,K,A*5A
$GNZDA,104451,09,06,2012,-04,00*74
$GNRMC,104451,A,5956.92317,N,03023.18383,E,2.6821,92.38883,090612,,,A*69
$GNGLL,5956.92317,N,03023.18383,E,104451,A,A*5E
$GNVTG,92.38883,T,,,2.6821,N,4.96724,K,A*58
$GNZDA,104452,09,06,2012,-04,00*77
$GNRMC,104452,A,5956.92317,N,03023.18533,E,2.62711,89.99643,090612,,,A*5A
$GNGLL,5956.92317,N,03023.18533,E,104452,A,A*50
$GNVTG,89.99643,T,,,2.62711,N,4.86541,K,A*65
$GNZDA,104453,09,06,2012,-04,00*76
$GNRMC,104453,A,5956.92317,N,03023.18683,E,2.70544,87.77392,090612,,,A*55
$GNGLL,5956.92317,N,03023.18683,E,104453,A,A*59
$GNVTG,87.77392,T,,,2.70544,N,5.01048,K,A*61
$GNZDA,104454,09,06,2012,-04,00*71
$GNRMC,104454,A,5956.92317,N,03023.18817,E,2.61731,90.17728,090612,,,A*54
$GNGLL,5956.92317,N,03023.18817,E,104454,A,A*5D
$GNVTG,90.17728,T,,,2.61731,N,4.84726,K,A*67
$GNZDA,104455,09,06,2012,-04,00*70
$GNRMC,104455,A,5956.92317,N,03023.18967,E,2.56558,91.53796,090612,,,A*5E
$GNGLL,5956.92317,N,03023.18967,E,104455,A,A*5A
$GNVTG,91.53796,T,,,2.56558,N,4.75146,K,A*64
$GNZDA,104456,09,06,2012,-04,00*73
$GNRMC,104456,A,5956.92317,N,03023.191,E,2.56431,91.16497,090612,,,A*58
$GNGLL,5956.92317,N,03023.191,E,104456,A,A*51
$GNVTG,91.16497,T,,,2.56431,N,4.7491,K,A*53
$GNZDA,104457,09,06,2012,-04,00*72
$GNRMC,104457,A,5956.92317,N,03023.1925,E,2.54971,90.32827,090612,,,A*64
$GNGLL,5956.92317,N,03023.1925,E,104457,A,A*66
$GNVTG,90.32827,T,,,2.54971,N,4.72206,K,A*62
$GNZDA,104458,09,06,2012,-04,00*7D
$GNRMC,104458,A,5956.92317,N,03023.19383,E,2.64309,91.26082,090612,,,A*51
$GNGLL,5956.92317,N,03023.19383,E,104458,A,A*56
$GNVTG,91.26082,T,,,2.64309,N,4.895,K,A*62
$GNZDA,104459,09,06,2012,-04,00*7C
$GNRMC,104459,A,5956.92317,N,03023.19517,E,2.59502,90.20921,090612,,,A*5F
$GNGLL,5956.92317,N,03023.19517,E,104459,A,A*5C
$GNVTG,90.20921,T,,,2.59502,N,4.80598,K,A*6E
$GNZDA,104500,09,06,2012,-04,00*71
$GNRMC,104500,A,5956.92317,N,03023.19667,E,2.57288,90.76261,090612,,,A*51
$GNGLL,5956.92317,N,03023.19667,E,104500,A,A*55
$GNVTG,90.76261,T,,,2.57288,N,4.76498,K,A*61
$GNZDA,104501,09,06,2012,-04,00*70
$GNRMC,104501,A,5956.92317,N,03023.198,E,2.56008,89.50707,090612,,,A*5D
$GNGLL,5956.92317,N,03023.198,E,104501,A,A*5B
$GNVTG,89.50707,T,,,2.56008,N,4.74127,K,A*60
$GNZDA,104502,09,06,2012,-04,00*73
$GNRMC,104502,A,5956.92317,N,03023.19933,E,2.63095,94.77159,090612,,,A*59
$GNGLL,5956.92317,N,03023.19933,E,104502,A,A*59
$GNVTG,94.77159,T,,,2.63095,N,4.87251,K,A*68
$GNZDA,104503,09,06,2012,-04,00*72
$GNRMC,104503,A,5956.92317,N,03023.20083,E,2.70776,89.33023,090612,,,A*58
$GNGLL,5956.92317,N,03023.20083,E,104503,A,A*50
$GNVTG,89.33023,T,,,2.70776,N,5.01478,K,A*62
$GNZDA,104504,09,06,2012,-04,00*75
$GNRMC,104504,A,5956.923,N,03023.20233,E,2.60313,91.55522,090612,,,A*5B
$GNGLL,5956.923,N,03023.20233,E,104504,A,A*58
$GNVTG,91.55522,T,,,2.60313,N,4.82099,K,A*68
$GNZDA,104505,09,06,2012,-04,00*74
$GNRMC,104505,A,5956.923,N,03023.20383,E,2.65168,89.14226,090612,,,A*54
$GNGLL,5956.923,N,03023.20383,E,104505,A,A*53
$GNVTG,89.14226,T,,,2.65168,N,4.91092,K,A*65
$GNZDA,104506,09,06,2012,-04,00*77
$GNRMC,104506,A,5956.923,N,03023.20533,E,2.60539,92.77601,090612,,,A*51
$GNGLL,5956.923,N,03023.20533,E,104506,A,A*5D
$GNVTG,92.77601,T,,,2.60539,N,4.82518,K,A*6B
$GNZDA,104507,09,06,2012,-04,00*76
$GNRMC,104507,A,5956.92317,N,03023.207,E,2.65151,91.21675,090612,,,A*58
$GNGLL,5956.92317,N,03023.207,E,104507,A,A*58
$GNVTG,91.21675,T,,,2.65151,N,4.9106,K,A*5F
$GNZDA,104508,09,06,2012,-04,00*79
$GNRMC,104508,A,5956.923,N,03023.20833,E,2.62068,91.99764,090612,,,A*50
$GNGLL,5956.923,N,03023.20833,E,104508,A,A*5E
$GNVTG,91.99764,T,,,2.62068,N,4.8535,K,A*54
$GNZDA,104509,09,06,2012,-04,00*78
$GNRMC,104509,A,5956.923,N,03023.20967,E,2.66429,91.31207,090612,,,A*56
$GNGLL,5956.923,N,03023.20967,E,104509,A,A*5F
$GNVTG,91.31207,T,,,2.66429,N,4.93426,K,A*62
$GNZDA,104510,09,06,2012,-04,00*70
$GNDTM,W84,,,,,,,*0F
$GNRMC,104510,A,5956.923,N,03023.21133,E,2.63879,89.66437,090612,,,A*54
$GNGLL,5956.923,N,03023.21133,E,104510,A,A*5F
$GNVTG,89.66437,T,,,2.63879,N,4.88703,K,A*6E
$GNZDA,104511,09,06,2012,-04,00*71
$GNRMC,104511,A,5956.923,N,03023.21283,E,2.64936,92.73828,090612,,,A*5C
$GNGLL,5956.923,N,03023.21283,E,104511,A,A*56
$GNVTG,92.73828,T,,,2.64936,N,4.90661,K,A*63
$GNZDA,104512,09,06,2012,-04,00*72
$GNRMC,104512,A,5956.923,N,03023.21433,E,2.60741,89.951,090612,,,A*59
$GNGLL,5956.923,N,03023.21433,E,104512,A,A*58
$GNVTG,89.951,T,,,2.60741,N,4.82892,K,A*69
$GNZDA,104513,09,06,2012,-04,00*73
$GNRMC,104513,A,5956.923,N,03023.21583,E,2.61962,90.80982,090612,,,A*52
$GNGLL,5956.923,N,03023.21583,E,104513,A,A*53
$GNVTG,90.80982,T,,,2.61962,N,4.85154,K,A*6D
$GNZDA,104514,09,06,2012,-04,00*74
$GNRMC,104514,A,5956.923,N,03023.217,E,2.70122,91.52051,090612,,,A*59
$GNGLL,5956.923,N,03023.217,E,104514,A,A*5D
$GNVTG,91.52051,T,,,2.70122,N,5.00266,K,A*66
$GNZDA,104515,09,06,2012,-04,00*75
$GNRMC,104515,A,5956.923,N,03023.2185,E,2.69448,89.34521,090612,,,A*68
$GNGLL,5956.923,N,03023.2185,E,104515,A,A*66
$GNVTG,89.34521,T,,,2.69448,N,4.99017,K,A*69
$GNZDA,104516,09,06,2012,-04,00*76
$GNRMC,104516,A,5956.923,N,03023.21967,E,2.53442,91.75886,090612,,,A*51
$GNGLL,5956.923,N,03023.21967,E,104516,A,A*50
$GNVTG,91.75886,T,,,2.53442,N,4.69374,K,A*6F
$GNZDA,104517,09,06,2012,-04,00*77
$GNRMC,104517,A,5956.923,N,03023.22117,E,2.55845,91.29449,090612,,,A*57
$GNGLL,5956.923,N,03023.22117,E,104517,A,A*5D
$GNVTG,91.29449,T,,,2.55845,N,4.73824,K,A*61
$GNZDA,104518,09,06,2012,-04,00*78
$GNRMC,104518,A,5956.92283,N,03023.22267,E,2.73521,90.39839,090612,,,A*56
$GNGLL,5956.92283,N,03023.22267,E,104518,A,A*5C
$GNVTG,90.39839,T,,,2.73521,N,5.06561,K,A*6E
$GNZDA,104519,09,06,2012,-04,00*79
$GNRMC,104519,A,5956.92283,N,03023.22417,E,2.65944,93.7322,090612,,,A*61
$GNGLL,5956.92283,N,03023.22417,E,104519,A,A*5C
$GNVTG,93.7322,T,,,2.65944,N,4.92529,K,A*59
$GNZDA,104520,09,06,2012,-04,00*73
$GNRMC,104520,A,5956.92283,N,03023.22567,E,2.62893,91.43102,090612,,,A*53
$GNGLL,5956.92283,N,03023.22567,E,104520,A,A*50
$GNVTG,91.43102,T,,,2.62893,N,4.86878,K,A*6B
$GNZDA,104521,09,06,2012,-04,00*72
$GNRMC,104521,A,5956.92267,N,03023.227,E,2.67101,92.98539,090612,,,A*55
$GNGLL,5956.92267,N,03023.227,E,104521,A,A*58
$GNVTG,92.98539,T,,,2.67101,N,4.94671,K,A*61
$GNZDA,104522,09,06,2012,-04,00*71
$GNRMC,104522,A,5956.92267,N,03023.22833,E,2.66615,91.78566,090612,,,A*5D
$GNGLL,5956.92267,N,03023.22833,E,104522,A,A*54
$GNVTG,91.78566,T,,,2.66615,N,4.93771,K,A*63
$GNZDA,104523,09,06,2012,-04,00*70
$GNRMC,104523,A,5956.92267,N,03023.22967,E,2.66485,90.43884,090612,,,A*5F
$GNGLL,5956.92267,N,03023.22967,E,104523,A,A*55
$GNVTG,90.43884,T,,,2.66485,N,4.9353,K,A*57
$GNZDA,104524,09,06,2012,-04,00*77
$GNRMC,104524,A,5956.92267,N,03023.23117,E,2.64547,90.89058,090612,,,A*54
$GNGLL,5956.92267,N,03023.23117,E,104524,A,A*5C
$GNVTG,90.89058,T,,,2.64547,N,4.89941,K,A*64
$GNZDA,104525,09,06,2012,-04,00*76
$GNRMC,104525,A,5956.92267,N,03023.23283,E,2.62991,88.86035,090612,,,A*57
$GNGLL,5956.92267,N,03023.23283,E,104525,A,A*53
$GNVTG,88.86035,T,,,2.62991,N,4.87059,K,A*66
$GNZDA,104526,09,06,2012,-04,00*75
$GNRMC,104526,A,5956.92267,N,03023.23433,E,2.56219,92.68653,090612,,,A*58
$GNGLL,5956.92267,N,03023.23433,E,104526,A,A*5D
$GNVTG,92.68653,T,,,2.56219,N,4.74517,K,A*64
$GNZDA,104527,09,06,2012,-04,00*74
$GNRMC,104527,A,5956.92267,N,03023.23583,E,2.66478,90.89278,090612,,,A*51
$GNGLL,5956.92267,N,03023.23583,E,104527,A,A*56
$GNVTG,90.89278,T,,,2.66478,N,4.93517,K,A*6F
$GNZDA,104528,09,06,2012,-04,00*7B
$GNRMC,104528,A,5956.92267,N,03023.23717,E,2.62057,90.49362,090612,,,A*5A
$GNGLL,5956.92267,N,03023.23717,E,104528,A,A*56
$GNVTG,90.49362,T,,,2.62057,N,4.85329,K,A*68
$GNZDA,104529,09,06,2012,-04,00*7A
$GNRMC,104529,A,5956.9225,N,03023.2385,E,2.54856,96.24207,090612,,,A*50
$GNGLL,5956.9225,N,03023.2385,E,104529,A,A*5F
$GNVTG,96.24207,T,,,2.54856,N,4.71993,K,A*6B
$GNZDA,104530,09,06,2012,-04,00*72
$GNRMC,104530,A,5956.9225,N,03023.23967,E,2.44499,91.76853,090612,,,A*68
$GNGLL,5956.9225,N,03023.23967,E,104530,A,A*62
$GNVTG,91.76853,T,,,2.44499,N,4.52812,K,A*67
$GNZDA,104531,09,06,2012,-04,00*73
$GNRMC,104531,A,5956.9225,N,03023.24117,E,2.55285,79.56779,090612,,,A*69
$GNGLL,5956.9225,N,03023.24117,E,104531,A,A*6B
$GNVTG,79.56779,T,,,2.55285,N,4.72788,K,A*61
$GNZDA,104532,09,06,2012,-04,00*70
$GNRMC,104532,A,5956.92267,N,03023.2425,E,2.71597,78.81562,090612,,,A*6F
$GNGLL,5956.92267,N,03023.2425,E,104532,A,A*6C
$GNVTG,78.81562,T,,,2.71597,N,5.02997,K,A*66
$GNZDA,104533,09,06,2012,-04,00*71
$GNRMC,104533,A,5956.92283,N,03023.244,E,2.67889,78.04137,090612,,,A*5B
$GNGLL,5956.92283,N,03023.244,E,104533,A,A*54
$GNVTG,78.04137,T,,,2.67889,N,4.9613,K,A*53
$GNZDA,104534,09,06,2012,-04,00*76
$GNRMC,104534,A,5956.923,N,03023.24533,E,2.60612,74.21192,090612,,,A*58
$GNGLL,5956.923,N,03023.24533,E,104534,A,A*58
$GNVTG,74.21192,T,,,2.60612,N,4.82654,K,A*6C
$GNZDA,104535,09,06,2012,-04,00*77
$GNRMC,104535,A,5956.92317,N,03023.24667,E,2.53155,71.5388,090612,,,A*63
$GNGLL,5956.92317,N,03023.24667,E,104535,A,A*5D
$GNVTG,71.5388,T,,,2.53155,N,4.68843,K,A*5E
$GNZDA,104536,09,06,2012,-04,00*74
$GNRMC,104536,A,5956.92333,N,03023.248,E,2.7395,80.53248,090612,,,A*66
$GNGLL,5956.92333,N,03023.248,E,104536,A,A*57
$GNVTG,80.53248,T,,,2.7395,N,5.07356,K,A*56
$GNZDA,104537,09,06,2012,-04,00*75
$GNRMC,104537,A,5956.92333,N,03023.24983,E,2.90587,89.64926,090612,,,A*58
$GNGLL,5956.92333,N,03023.24983,E,104537,A,A*5C
$GNVTG,89.64926,T,,,2.90587,N,5.38166,K,A*6E
$GNZDA,104538,09,06,2012,-04,00*7A
$GNRMC,104538,A,5956.9235,N,03023.25133,E,2.891,89.34198,090612,,,A*6B
$GNGLL,5956.9235,N,03023.25133,E,104538,A,A*64
$GNVTG,89.34198,T,,,2.891,N,5.35414,K,A*68
$GNZDA,104539,09,06,2012,-04,00*7B
$GNRMC,104539,A,5956.9235,N,03023.253,E,2.82924,90.46864,090612,,,A*6A
$GNGLL,5956.9235,N,03023.253,E,104539,A,A*67
$GNVTG,90.46864,T,,,2.82924,N,5.23975,K,A*67
$GNZDA,104540,09,06,2012,-04,00*75
$GNDTM,W84,,,,,,,*0F
$GNRMC,104540,A,5956.92333,N,03023.2545,E,2.79105,91.56988,090612,,,A*6F
$GNGLL,5956.92333,N,03023.2545,E,104540,A,A*6E
$GNVTG,91.56988,T,,,2.79105,N,5.16902,K,A*6D
$GNZDA,104541,09,06,2012,-04,00*74
$GNRMC,104541,A,5956.92333,N,03023.256,E,2.83693,89.21798,090612,,,A*52
$GNGLL,5956.92333,N,03023.256,E,104541,A,A*58
$GNVTG,89.21798,T,,,2.83693,N,5.254,K,A*69
$GNZDA,104542,09,06,2012,-04,00*77
$GNRMC,104542,A,5956.92333,N,03023.2575,E,2.90584,86.74378,090612,,,A*67
$GNGLL,5956.92333,N,03023.2575,E,104542,A,A*6F
$GNVTG,86.74378,T,,,2.90584,N,5.38162,K,A*66
$GNZDA,104543,09,06,2012,-04,00*76
$GNRMC,104543,A,5956.92333,N,03023.259,E,3.05352,83.54556,090612,,,A*50
$GNGLL,5956.92333,N,03023.259,E,104543,A,A*55
$GNVTG,83.54556,T,,,3.05352,N,5.65511,K,A*63
$GNZDA,104544,09,06,2012,-04,00*71
$GNRMC,104544,A,5956.92333,N,03023.2605,E,2.83586,88.55501,090612,,,A*60
$GNGLL,5956.92333,N,03023.2605,E,104544,A,A*6D
$GNVTG,88.55501,T,,,2.83586,N,5.25201,K,A*69
$GNZDA,104545,09,06,2012,-04,00*70
$GNRMC,104545,A,5956.92317,N,03023.26217,E,2.8574,95.235,090612,,,A*64
$GNGLL,5956.92317,N,03023.26217,E,104545,A,A*5B
$GNVTG,95.235,T,,,2.8574,N,5.2919,K,A*6C
$GNZDA,104546,09,06,2012,-04,00*73
$GNRMC,104546,A,5956.92317,N,03023.26383,E,2.73062,97.73382,090612,,,A*5E
$GNGLL,5956.92317,N,03023.26383,E,104546,A,A*54
$GNVTG,97.73382,T,,,2.73062,N,5.0571,K,A*59
$GNZDA,104547,09,06,2012,-04,00*72
$GNRMC,104547,A,5956.92317,N,03023.2655,E,2.6724,95.8881,090612,,,A*66
$GNGLL,5956.92317,N,03023.2655,E,104547,A,A*6D
$GNVTG,95.8881,T,,,2.6724,N,4.94929,K,A*65
$GNZDA,104548,09,06,2012,-04,00*7D
$GNRMC,104548,A,5956.923,N,03023.267,E,2.71191,95.05905,090612,,,A*50
$GNGLL,5956.923,N,03023.267,E,104548,A,A*53
$GNVTG,95.05905,T,,,2.71191,N,5.02246,K,A*61
$GNZDA,104549,09,06,2012,-04,00*7C
$GNRMC,104549,A,5956.923,N,03023.2685,E,2.75119,93.69316,090612,,,A*6B
$GNGLL,5956.923,N,03023.2685,E,104549,A,A*68
$GNVTG,93.69316,T,,,2.75119,N,5.0952,K,A*5D
$GNZDA,104550,09,06,2012,-04,00*74
$GNRMC,104550,A,5956.923,N,03023.26983,E,2.69365,96.00769,090612,,,A*5E
$GNGLL,5956.923,N,03023.26983,E,104550,A,A*5F
$GNVTG,96.00769,T,,,2.69365,N,4.98865,K,A*6A
$GNZDA,104551,09,06,2012,-04,00*75
$GNRMC,104551,A,5956.92283,N,03023.27133,E,2.70863,96.28813,090612,,,A*5A
$GNGLL,5956.92283,N,03023.27133,E,104551,A,A*56
$GNVTG,96.28813,T,,,2.70863,N,5.01638,K,A*60
$GNZDA,104552,09,06,2012,-04,00*76
$GNRMC,104552,A,5956.92283,N,03023.273,E,2.7973,92.13787,090612,,,A*65
$GNGLL,5956.92283,N,03023.273,E,104552,A,A*57
$GNVTG,92.13787,T,,,2.7973,N,5.1806,K,A*6D
$GNZDA,104553,09,06,2012,-04,00*77
$GNRMC,104553,A,5956.92267,N,03023.2745,E,2.65226,92.02549,090612,,,A*63
$GNGLL,5956.92267,N,03023.2745,E,104553,A,A*6E
$GNVTG,92.02549,T,,,2.65226,N,4.91199,K,A*65
$GNZDA,104554,09,06,2012,-04,00*70
$GNRMC,104554,A,5956.92267,N,03023.276,E,2.781,88.40885,090612,,,A*58
$GNGLL,5956.92267,N,03023.276,E,104554,A,A*5E
$GNVTG,88.40885,T,,,2.781,N,5.15042,K,A*64
$GNZDA,104555,09,06,2012,-04,00*71
$GNRMC,104555,A,5956.92267,N,03023.27733,E,2.79035,89.78347,090612,,,A*51
$GNGLL,5956.92267,N,03023.27733,E,104555,A,A*5E
$GNVTG,89.78347,T,,,2.79035,N,5.16773,K,A*6B
$GNZDA,104556,09,06,2012,-04,00*72
$GNRMC,104556,A,5956.92267,N,03023.27883,E,2.66701,94.29785,090612,,,A*5A
$GNGLL,5956.92267,N,03023.27883,E,104556,A,A*59
$GNVTG,94.29785,T,,,2.66701,N,4.9393,K,A*52
$GNZDA,104557,09,06,2012,-04,00*73
$GNRMC,104557,A,5956.9225,N,03023.2805,E,2.6232,96.35293,090612,,,A*68
$GNGLL,5956.9225,N,03023.2805,E,104557,A,A*55
$GNVTG,96.35293,T,,,2.6232,N,4.85817,K,A*5F
$GNZDA,104558,09,06,2012,-04,00*7C
$GNRMC,104558,A,5956.92267,N,03023.28217,E,2.77388,91.82494,090612,,,A*5E
$GNGLL,5956.92267,N,03023.28217,E,104558,A,A*5F
$GNVTG,91.82494,T,,,2.77388,N,5.13723,K,A*65
$GNZDA,104559,09,06,2012,-04,00*7D
$GNRMC,104559,A,5956.92267,N,03023.28367,E,2.72945,89.88382,090612,,,A*54
$GNGLL,5956.92267,N,03023.28367,E,104559,A,A*58
$GNVTG,89.88382,T,,,2.72945,N,5.05494,K,A*60
$GNZDA,104600,09,06,2012,-04,00*72
$GNRMC,104600,A,5956.9225,N,03023.28517,E,2.61059,91.79673,090612,,,A*64
$GNGLL,5956.9225,N,03023.28517,E,104600,A,A*62
$GNVTG,91.79673,T,,,2.61059,N,4.83481,K,A*61
$GNZDA,104601,09,06,2012,-04,00*73
$GNRMC,104601,A,5956.9225,N,03023.2865,E,2.68591,93.79478,090612,,,A*56
$GNGLL,5956.9225,N,03023.2865,E,104601,A,A*53
$GNVTG,93.79478,T,,,2.68591,N,4.97431,K,A*6C
$GNZDA,104602,09,06,2012,-04,00*70
$GNRMC,104602,A,5956.9225,N,03023.288,E,2.71594,91.93088,090612,,,A*6E
$GNGLL,5956.9225,N,03023.288,E,104602,A,A*6B
$GNVTG,91.93088,T,,,2.71594,N,5.02992,K,A*65
$GNZDA,104603,09,06,2012,-04,00*71
$GNRMC,104603,A,5956.9225,N,03023.2895,E,2.6772,92.22554,090612,,,A*6C
$GNGLL,5956.9225,N,03023.2895,E,104603,A,A*5E
$GNVTG,92.22554,T,,,2.6772,N,4.95818,K,A*5E
$GNZDA,104604,09,06,2012,-04,00*76
