$GNZDA,103453,09,06,2012,-04,00*71
$GNDTM,W84,,,,,,,*0F
$GNRMC,103453,V,5956.98683,N,03023.25167,E,0,,090612,,,E*47
$GNGLL,5956.98683,N,03023.25167,E,103453,V,E*4C
$GNVTG,,,,,0,N,0,K,E*20
$GNZDA,103454,09,06,2012,-04,00*76
$GNRMC,103454,V,5956.98683,N,03023.25167,E,0,,090612,,,E*40
$GNGLL,5956.98683,N,03023.25167,E,103454,V,E*4B
$GNVTG,,,,,0,N,0,K,E*20
$GNZDA,103455,09,06,2012,-04,00*77
$GNRMC,103455,V,5956.98683,N,03023.25167,E,0,,090612,,,E*41
$GNGLL,5956.98683,N,03023.25167,E,103455,V,E*4A
$GNVTG,,,,,0,N,0,K,E*20
$GNZDA,103456,09,06,2012,-04,00*74
$GNRMC,103456,V,5956.98683,N,03023.25167,E,0,,090612,,,E*42
$GNGLL,5956.98683,N,03023.25167,E,103456,V,E*49
$GNVTG,,,,,0,N,0,K,E*20
$GNZDA,103457,09,06,2012,-04,00*75
$GNRMC,103457,V,5956.98683,N,03023.25167,E,0,,090612,,,E*43
$GNGLL,5956.98683,N,03023.25167,E,103457,V,E*48
$GNVTG,,,,,0,N,0,K,E*20
$GNZDA,103458,09,06,2012,-04,00*7A
$GNRMC,103458,V,5956.98683,N,03023.25167,E,0,,090612,,,E*4C
$GNGLL,5956.98683,N,03023.25167,E,103458,V,E*47
$GNVTG,,,,,0,N,0,K,E*20
$GNZDA,103459,09,06,2012,-04,00*7B
$GNRMC,103459,V,5956.98683,N,03023.25167,E,0,,090612,,,E*4D
$GNGLL,5956.98683,N,03023.25167,E,103459,V,E*46
$GNVTG,,,,,0,N,0,K,E*20
$GNZDA,103500,09,06,2012,-04,00*76
$GNRMC,103500,V,5956.98683,N,03023.25167,E,0,,090612,,,E*40
$GNGLL,5956.98683,N,03023.25167,E,103500,V,E*4B
$GNVTG,,,,,0,N,0,K,E*20
$GNZDA,103501,09,06,2012,-04,00*77
$GNRMC,103501,V,5956.98683,N,03023.25167,E,0,,090612,,,E*41
$GNGLL,5956.98683,N,03023.25167,E,103501,V,E*4A
$GNVTG,,,,,0,N,0,K,E*20
$GNZDA,103502,09,06,2012,-04,00*74
$GNRMC,103502,V,5956.98683,N,03023.25167,E,0,,090612,,,E*42
$GNGLL,5956.98683,N,03023.25167,E,103502,V,E*49
$GNVTG,,,,,0,N,0,K,E*20
$GNZDA,103503,09,06,2012,-04,00*75
$GNRMC,103503,V,5956.98683,N,03023.25167,E,0,,090612,,,E*43
$GNGLL,5956.98683,N,03023.25167,E,103503,V,E*48
$GNVTG,,,,,0,N,0,K,E*20
$GNZDA,103504,09,06,2012,-04,00*72
$GNRMC,103504,V,5956.98683,N,03023.25167,E,0,,090612,,,E*44
$GNGLL,5956.98683,N,03023.25167,E,103504,V,E*4F
$GNVTG,,,,,0,N,0,K,E*20
$GNZDA,103505,09,06,2012,-04,00*73
$GNRMC,103505,V,5956.98683,N,03023.25167,E,0,,090612,,,E*45
$GNGLL,5956.98683,N,03023.25167,E,103505,V,E*4E
$GNVTG,,,,,0,N,0,K,E*20
$GNZDA,103506,09,06,2012,-04,00*70
$GNRMC,103506,V,5956.98683,N,03023.25167,E,0,,090612,,,E*46
$GNGLL,5956.98683,N,03023.25167,E,103506,V,E*4D
$GNVTG,,,,,0,N,0,K,E*20
$GNZDA,103507,09,06,2012,-04,00*71
$GNRMC,103507,V,5956.98683,N,03023.25167,E,0,,090612,,,E*47
$GNGLL,5956.98683,N,03023.25167,E,103507,V,E*4C
$GNVTG,,,,,0,N,0,K,E*20
$GNZDA,103508,09,06,2012,-04,00*7E
$GNRMC,103508,V,5956.98683,N,03023.25167,E,0,,090612,,,E*48
$GNGLL,5956.98683,N,03023.25167,E,103508,V,E*43
$GNVTG,,,,,0,N,0,K,E*20
$GNZDA,103509,09,06,2012,-04,00*7F
$GNRMC,103509,V,5956.98683,N,03023.25167,E,0,,090612,,,E*49
$GNGLL,5956.98683,N,03023.25167,E,103509,V,E*42
$GNVTG,,,,,0,N,0,K,E*20
$GNZDA,103510,09,06,2012,-04,00*77
$GNRMC,103510,V,5956.98683,N,03023.25167,E,0,,090612,,,E*41
$GNGLL,5956.98683,N,03023.25167,E,103510,V,E*4A
$GNVTG,,,,,0,N,0,K,E*20
$GNZDA,103511,09,06,2012,-04,00*76
$GNRMC,103511,V,5956.98683,N,03023.25167,E,0,,090612,,,E*40
$GNGLL,5956.98683,N,03023.25167,E,103511,V,E*4B
$GNVTG,,,,,0,N,0,K,E*20
$GNZDA,103512,09,06,2012,-04,00*75
$GNRMC,103512,V,5956.98683,N,03023.25167,E,0,,090612,,,E*43
$GNGLL,5956.98683,N,03023.25167,E,103512,V,E*48
$GNVTG,,,,,0,N,0,K,E*20
$GNZDA,103513,09,06,2012,-04,00*74
$GNRMC,103513,V,5956.98683,N,03023.25167,E,0,,090612,,,E*42
$GNGLL,5956.98683,N,03023.25167,E,103513,V,E*49
$GNVTG,,,,,0,N,0,K,E*20
$GNZDA,103514,09,06,2012,-04,00*73
$GNRMC,103514,V,5956.98683,N,03023.25167,E,0,,090612,,,E*45
$GNGLL,5956.98683,N,03023.25167,E,103514,V,E*4E
$GNVTG,,,,,0,N,0,K,E*20
$GNZDA,103515,09,06,2012,-04,00*72
$GNRMC,103515,V,5956.98683,N,03023.25167,E,0,,090612,,,E*44
$GNGLL,5956.98683,N,03023.25167,E,103515,V,E*4F
$GNVTG,,,,,0,N,0,K,E*20
$GNZDA,103516,09,06,2012,-04,00*71
$GNRMC,103516,V,5956.98683,N,03023.25167,E,0,,090612,,,E*47
$GNGLL,5956.98683,N,03023.25167,E,103516,V,E*4C
$GNVTG,,,,,0,N,0,K,E*20
$GNZDA,103517,09,06,2012,-04,00*70
$GNRMC,103517,V,5956.98683,N,03023.25167,E,0,,090612,,,E*46
$GNGLL,5956.98683,N,03023.25167,E,103517,V,E*4D
$GNVTG,,,,,0,N,0,K,E*20
$GNZDA,103518,09,06,2012,-04,00*7F
$GNRMC,103518,V,5956.98683,N,03023.25167,E,0,,090612,,,E*49
$GNGLL,5956.98683,N,03023.25167,E,103518,V,E*42
$GNVTG,,,,,0,N,0,K,E*20
